fieldsurfacetype, streetno, sportsplayed, facilityname, numberfieldcourts, facilitycondition, facilityupgradeage, postcode, facility_id, facilityage, streettype, changerooms, longitude, latitude, objectid, faciltysportplayedid, suburbtown, lga, streetname
null,null,"BMX","Lilydale BMX Club",null,null,null,null,"YARRAC5444",null,"Street",null,145.35670599995,-37.7481569988831,9060,27698,"LILYDALE","YARRA RANGES","Anderson"
null,"115","Fitness / Gymnasium Workouts","Nitro Gym",1,null,null,3137,"YARRAR11444",null,"Road",null,145.259467000403,-38.0053919988504,9289,18548,"KILSYTH","CASEY","Canterbury"
null,null,"Tennis (Outdoor)","Minak Reserve",4,"3. Average","6 - 10 Years",3159,"YARRAR11484","26 - 50 Years","Road",null,145.37278100054,-37.9125899990689,9374,18634,"SELBY","YARRA RANGES","Wombalana"
"18 Hole Course - Public",null,"Golf","Baker Golf Club",1,null,null,3418,"HINDMA9612",null,"Road",null,141.586894999488,-36.0746149995223,3856,26012,"BAKER","HINDMARSH","Baker"
null,null,"Equestrian","Truganina Club Grounds",null,null,null,3029,"HOBSON11346",null,"Road",null,144.721687999976,-37.8224829992994,3952,26854,"TRUGANINA","WYNDHAM","Woods"
"Turf Pitch",null,"Cricket","Binnak Park",1,null,null,3083,"BANYUL12800",null,"Parade",null,145.080914999471,-37.697331998711,387,21290,"BUNDOORA","BANYULE","Anderson"
null,null,"Sailing","Cowes Yacht Club",null,null,null,3922,"BASSCO11215",null,"Avenue",null,145.233400000018,-38.4490209991763,554,26756,"COWES","BASS COAST","Osborne"
null,null,"Gymnastics","Benalla Gymnastics Club",null,null,null,3672,"BENALL11446",null,"Street",null,145.96304699999,-36.5550879987529,926,27306,"BENALLA","BENALLA","Bridge"
null,null,"Cycling","Beechworth Mtb Park",null,null,null,null,"INDIGO5415",null,null,null,146.700869000294,-36.3425769987709,4302,27671,null,"INDIGO",null
"Synthetic Pitch",null,"Cricket","George Woods Reserve",1,null,null,3195,"KINGST10946",null,"Road",null,145.09837899999,-38.0092119993734,4383,25460,"MORDIALLOC","KINGSTON","Governor"
null,"52","Gymnastics","Cheltnam Youth Club",null,null,null,3195,"KINGST11451",null,"Drive",null,145.114715999686,-37.9897699990324,4433,27332,"BRAESIDE","KINGSTON","Tarnard"
null,null,"Carpet Bowls","James Boyle Hall",null,"3. Average","N/A",3537,"LODDON12598","26 - 50 Years","Street",null,143.72782800014,-36.1169999993787,4910,20919,"BOORT","LODDON","Godfrey"
null,null,"Gymnastics","Moyhu and District youth Club",null,null,null,3732,"WANGAR11494",null,"Street",null,146.366315000527,-36.5769989993562,8190,27370,"MOYHU","WANGARATTA","Bartley"
null,null,"Polocrosse","Sale Polocrosse",null,null,null,3850,"WELLIN11047",null,null,null,147.023380000059,-38.1127369995098,8461,24647,"WURRUK","WELLINGTON",null
"Asphalt",null,"Tennis (Outdoor)","High School Reserve",4,null,null,3860,"WELLIN11008",null,"Street",null,146.981748999993,-37.9630969993536,8488,24571,"MAFFRA","WELLINGTON","King"
"Wooden Gymnasium","221","Badminton","Deakin YMCA",2,null,null,3125,"WHITEH11007",null,"Hwy",null,145.116445999725,-37.8469499992008,8574,25074,"BURWOOD","WHITEHORSE","Burwood"
"Hard Court",null,"Tennis (Outdoor)","Eley Park",8,"3. Average","11 + Years",3151,"WHITEH11009","26 - 50 Years","Road","Female, Male",145.143021999899,-37.8463089991135,8689,25086,"BURWOOD EAST","WHITEHORSE","Eley"
null,null,"Canoeing","Gatway Lakes",null,null,null,3690,"WODONG11111",null,"Road",null,146.821880999823,-36.1110499993146,8849,17736,"WODONGA","WODONGA","Lemke"
null,null,"Cricket","Raywood Oval",1,null,null,3570,"GREATE8709",null,"Street",null,144.204117000058,-36.5328319987438,1019,24208,"RAYWOOD","GREATER BENDIGO","MacAuley"
"Grass",null,"Baseball","Marshall Reserve",1,null,null,3166,"MONASH12036",null,"Road",null,145.138854000283,-37.912046999323,6094,19780,"HUNTINGDALE","MONASH","Ring East"
null,"9","Karate","Keenan karate Centre",1,null,null,3149,"MONASH12031",null,"Road",null,145.114414999907,-37.8563989986846,6182,19771,"MT WAVERLEY","MONASH","Barlyn"
null,"507-515","Squash / Racquetball","Fitzys Gym",null,null,null,3055,"MORELA13022",null,"Street",null,144.945367000411,-37.7649359990146,6548,21862,"BRUNSWICK WEST","MORELAND","Victoria"
"Grass","1562","Baseball","Tyabb Central Reserve",1,null,null,3913,"MORNIN11204",null,"Road",null,145.188857000283,-38.2621929989547,6599,18266,"TYABB","MORNINGTON PENINSULA","Frankston-Flinders"
"Road",null,"Cycling","Somers Circuit",1,null,null,null,"MORNIN5311",null,"Road",null,145.165860000389,-38.3891729993849,6645,27559,null,"MORNINGTON PENINSULA","Camphill"
null,null,"Sailing","Cairn Curran Sailing",null,null,null,3463,"MOUNTA12691",null,"Reserve",null,143.974075999909,-36.9944209987991,6854,21087,"BARINGHUP","MOUNT ALEXANDER","Cairn Curran"
"Outdoor Velodrome",null,"Cycling","Stawell Velodrome",1,null,null,3400,"NORTHE5129",null,"Street",null,142.205972000339,-36.7186309987974,7156,27294,"STAWELL","HORSHAM","McBryde"
null,null,"BMX","S-cape Regional Skate Park",null,null,null,3630,"GREATE12144",null,"Parade",null,145.397197000551,-36.3870889991409,7357,23666,"SHEPPARTON","GREATER SHEPPARTON","Trevaskis"
null,"19",null,"Anglesea Bowls Club",null,null,null,3230,"SURFCO11855",null,"Road",null,144.19123600055,-38.405952999332,7892,19451,"ANGLESEA","SURF COAST","Cameron"
null,null,"Motor Cycling","Colac Motocycle Club",null,null,null,null,"COLACO5121",null,"Road",null,143.630268999818,-38.4426599991534,2257,27286,"BARONGAROOK","COLAC OTWAY","Gold Hole"
"Grass",null,"Lawn Bowls","Simpson Bowls Club",1,null,null,3266,"CORANG12772",null,"Street",null,143.208746999427,-38.4975549994953,2367,21238,"SIMPSON??","CORANGAMITE","Murrock"
null,null,"Cycling","Wombat Track",null,null,null,null,"MACEDO5423",null,null,null,144.479613000026,-37.4266159989192,5027,27679,null,"MACEDON RANGES",null
null,null,"Equestrian","Buck Reserve",null,null,null,3111,"MANNIN11361",null,"Road",null,145.186757000266,-37.7664919989868,5152,26888,"DONVALE","MANNINGHAM","Reynolds"
null,"5-15","Fitness / Gymnasium Workouts","Contours Croydon",null,null,null,3136,"MAROON11005",null,"Avenue",null,145.277688999931,-37.79358199889,5434,23181,"CROYDON","MAROONDAH","Kent"
"Synthetic",null,"Basketball","Eynesbury Tennis Centre",1,null,null,3338,"MELTON10915",null,"Road",null,144.562904999527,-37.7672399991982,5638,24724,"EYNESBURY","MELTON","Eynesbury"
null,"65","Volleyball","Melton Indoor Sports Stadium",null,null,null,3337,"MELTON9071",null,"Road",null,144.5678269996,-37.6814989989577,5730,24793,"MELTON","MELTON","Reserve"
"Grass",null,"Lawn Bowls","Nangiloc Recreation Reserve",1,"4. Good","< 1 Years",3494,"MILDUR10999","11 - 25 Years","Way",null,142.362899000222,-34.4783879989721,5796,26120,"NANGILOC","MILDURA","Kulkyne"
null,null,"BMX","Broadford BMX Track",null,null,null,3658,"MITCHE11203",null,"Parade",null,145.05682999977,-37.1994669987397,5872,24059,"BROADFORD","MITCHELL","The"
"Hard Court",null,"Netball","Werribee Sports & Fitness Centre",5,"4. Good",null,3030,"WYNDHA8530",null,"Road","Female, Male",144.640316000408,-37.898600998879,9001,26686,"WERRIBEE","WYNDHAM","Ballan"
null,null,"Netball (indoor)","Hoppers Indoor Sportz",2,null,null,3029,"WYNDHA11288",null,"Court",null,144.727499999839,-37.8719999986371,9002,26982,"HOPPERS CROSSING","WYNDHAM","Graham"
"Carpet Playing Surface","13","Netball (Indoor)","Riverside Indoor Sports",5,null,null,3030,"WYNDHA8521",null,"Avenue",null,144.659073999704,-37.9134919991585,9003,26667,"WERRIBEE","WYNDHAM","Riverside"
null,null,"Polo","National Equestrian Centre",2,null,null,3030,"WYNDHA8516",null,"Road",null,144.674980000132,-37.9241109986971,9004,26653,"WERRIBEE","WYNDHAM","K"
null,null,"Rugby League","Clearwood Drive Reserve",2,null,"New facility under construction",null,"WYNDHA5496","0 - 5 Years","Drive",null,144.71782999978,-37.8400369994521,9005,27809,"TRUGANINA","WYNDHAM","Clearwood"
null,null,"Rugby League","Haines Drive Reserve",2,"5. Very Good",null,3024,"WYNDHA11000","0 - 5 Years","Road","Female, Male, Umpire/Officials",144.609389000349,-37.8970689990873,9006,27810,"WYNDHAM VALE","WYNDHAM","Haines"
null,null,"Cycling","Mt Tarrengower",null,null,null,null,"MOUNTA5433",null,null,null,144.049166999971,-36.9963889990249,6827,27688,null,"MOUNT ALEXANDER",null
null,null,"Rugby Union","Haines Drive Reserve",2,"5. Very Good",null,3024,"WYNDHA11000","0 - 5 Years","Road","Female, Male, Umpire/Officials, Unisex",144.609389000349,-37.8970689990873,9007,26571,"WYNDHAM VALE","WYNDHAM","Haines"
"Grass",null,"Rugby Union","Mossfiel Reserve",2,"3. Average","N/A",3029,"WYNDHA8514","26 - 50 Years","Road","Umpire/Officials, Unisex",144.692477999955,-37.8774369989504,9008,26647,"HOPPERS CROSSING","WYNDHAM","Heaths"
null,null,"Shooting Sports","Wyndham Handgun Club",null,null,null,3030,"WYNDHA11205",null,"Road",null,144.640603000401,-37.8983029988894,9009,27283,"WERRIBEE","WYNDHAM","Ballan"
"Concrete",null,"Skating","Boardwalk Skate Park",1,"3. Average","N/A",3030,"WYNDHA8492","0 - 5 Years","Boulevard",null,144.735336000124,-37.8805559989179,9010,26594,"POINT COOK","WYNDHAM","Boardwalk"
"Concrete",null,"Skating","Little River Reserve",1,null,null,3211,"WYNDHA8512",null,"Road",null,144.49740599951,-37.9614169989866,9011,26640,"LITTLE RIVER","WYNDHAM","You Yangs"
"Concrete",null,"Skating","Mossfiel Reserve",1,"4. Good","< 1 Years",3029,"WYNDHA8514","11 - 25 Years","Road",null,144.692477999955,-37.8774369989504,9012,26648,"HOPPERS CROSSING","WYNDHAM","Heaths"
"Concrete",null,"Skating","Presidents Park",1,"3. Average",null,3030,"WYNDHA8518","6 - 10 Years","Road",null,144.634572000429,-37.8818099989996,9013,26658,"WERRIBEE","WYNDHAM","McGraths"
"Grass",null,"Soccer","Forsyth Road Reserve",2,"5. Very Good",null,3029,"WYNDHA10998","0 - 5 Years","Road","Female, Male, Umpire/Officials, Unisex",144.729418999695,-37.8608039990255,9014,26567,"TRUGANINA","WYNDHAM","Forsyth"
"Artificial Turf",null,"Soccer","Forsyth Road Reserve",1,"5. Very Good",null,3029,"WYNDHA10998","0 - 5 Years","Road","Female, Male, Umpire/Officials, Unisex",144.729418999695,-37.8608039990255,9015,26566,"TRUGANINA","WYNDHAM","Forsyth"
"Grass",null,"Soccer","Galvin Park",3,"4. Good","Upgrade in progress",3030,"WYNDHA8502","11 - 25 Years","Road","Umpire/Officials, Unisex",144.650409000095,-37.8870599990877,9016,26619,"WERRIBEE","WYNDHAM","Shaws"
"Grass",null,"Soccer","Grange Reserve Soccer Complex",2,"5. Very Good","N/A",3029,"WYNDHA8505","0 - 5 Years","Road","Umpire/Officials, Unisex",144.67657200013,-37.8608849988679,9017,26622,"HOPPERS CROSSING","WYNDHAM","Hogans"
"Artificial Turf",null,"Soccer","Grange Reserve Soccer Complex",1,"5. Very Good","6 - 10 Years",3029,"WYNDHA8505","6 - 10 Years","Road","Umpire/Officials, Unisex",144.67657200013,-37.8608849988679,9018,26623,"HOPPERS CROSSING","WYNDHAM","Hogans"
"Artificial Turf",null,"Soccer","Saltwater Reserve",3,"5. Very Good",null,3030,"WYNDHA11003","0 - 5 Years","Road","Female, Male, Umpire/Officials, Unisex",144.752502000045,-37.9093509991689,9019,26580,"POINT COOK","WYNDHAM","Point Cook"
"Grass",null,"Soccer","Tom Roberts Parade Reserve",2,"5. Very Good",null,3030,"WYNDHA11004","0 - 5 Years","Parade","Female, Male, Umpire/Officials, Unisex",144.727529000391,-37.8940099995174,9020,26583,"POINT COOK","WYNDHAM","Tom Robert"
"Grass",null,"Soccer","VU Wyndham Sporting Complex",1,"4. Good","< 1 Years",3030,"WYNDHA8526","6 - 10 Years","Lane","Female, Male",144.702156999754,-37.8926289987902,9021,26677,"WERRIBEE","WYNDHAM","Hoppers"
"Carpet Playing Surface","13","Soccer (Indoor Soccer / Futsal)","Riverside Indoor Sports",5,null,null,3030,"WYNDHA8521",null,"Avenue",null,144.659073999704,-37.9134919991585,9022,26668,"WERRIBEE","WYNDHAM","Riverside"
"Grass",null,"Softball","Laurie Emmins Reserve",1,"2. Poor","6 - 10 Years",3026,"WYNDHA8511","11 - 25 Years","Road",null,144.764933000101,-37.8521359988681,9023,26637,"LAVERTON NORTH","WYNDHAM","Sayers"
"Grass",null,"Softball","Presidents Park",11,"5. Very Good","< 1 Years",3030,"WYNDHA8518","6 - 10 Years","Road","Female, Male",144.634572000429,-37.8818099989996,9024,26659,"WERRIBEE","WYNDHAM","McGraths"
"25m Pool - Indoor, Spa/Sauna","116","Swimming","Fenix Fitness Club Hoppers Crossing",null,null,null,3029,"WYNDHA8500",null,"Drive",null,144.691056000423,-37.8691269986606,9025,26614,"HOPPERS CROSSING","WYNDHAM","Mossfiel"
"25m Pool - Indoor","35","Swimming","Shawn's Swim School",null,null,null,3029,"WYNDHA8523",null,"Road",null,144.728999999598,-37.8659999994223,9026,26671,"HOPPERS CROSSING","WYNDHAM","Richards"
"50m Pool - Outdoor, Recreation / Play Water Space, Toddlers Pool",null,"Swimming","Werribee Olympic Pool",3,"5. Very Good","1 - 5 Years",3030,"WYNDHA8528",null,"Street","Female, Male, Unisex",144.651881999584,-37.9060409994606,9027,26680,"WERRIBEE","WYNDHAM","Watton"
"50m Pool - Indoor, Recreation / Play Water Space, Rehabilitation Pool, Spa/Sauna, Toddlers Pool",null,"Swimming","Wyndham Leisure & Events Centre",5,"5. Very Good",null,3029,"WYNDHA8533","11 - 25 Years","Road","Female, Male, Unisex",144.68335499999,-37.882172998776,9028,26694,"HOPPERS CROSSING","WYNDHAM","Derrimut"
null,null,"Table Tennis","Werribee Sports & Fitness Centre",5,"4. Good",null,3030,"WYNDHA8530",null,"Road","Female, Male",144.640316000408,-37.898600998879,9029,26687,"WERRIBEE","WYNDHAM","Ballan"
"Hard Court",null,"Tennis (Outdoor)","Cambridge Reserve",6,"4. Good","1 - 5 Years",3029,"WYNDHA8494","11 - 25 Years","Drive","Female, Male",144.675716999655,-37.8710689993511,9030,26598,"HOPPERS CROSSING","WYNDHAM","Barber"
"Hard Court",null,"Tennis (Outdoor)","Chirnside Park",2,"4. Good","< 1 Years",3030,"WYNDHA8495",null,"Street","Female, Male",144.652060999777,-37.9048149993845,9031,26602,"WERRIBEE","WYNDHAM","Watton"
"Clay",null,"Tennis (Outdoor)","Chirnside Park",2,"4. Good","< 1 Years",3030,"WYNDHA8495",null,"Street","Female, Male",144.652060999777,-37.9048149993845,9032,26603,"WERRIBEE","WYNDHAM","Watton"
"Hard Court",null,"Tennis (Outdoor)","Galvin Park",8,"2. Poor",null,3030,"WYNDHA8502",null,"Road","Female, Male",144.650409000095,-37.8870599990877,9033,26620,"WERRIBEE","WYNDHAM","Shaws"
null,null,"Tennis (Outdoor)","Hoppers Crossing Club",2,null,null,3029,"WYNDHA8508",null,"Drive",null,144.692772999834,-37.8694899993459,9034,26630,"HOPPERS CROSSING","WYNDHAM","Pannam"
"Hard Court",null,"Tennis (Outdoor)","Jamieson Way Tennis & Netball Complex",4,"4. Good","N/A",3030,"WYNDHA8510","0 - 5 Years","Way","Female, Male",144.7485320004,-37.8963119991958,9035,26634,"POINT COOK","WYNDHAM","Jamieson"
"Asphalt",null,"Tennis (Outdoor)","Little River Reserve",2,"4. Good","1 - 5 Years",3211,"WYNDHA8512","6 - 10 Years","Road","Umpire/Officials, Unisex",144.49740599951,-37.9614169989866,9036,26641,"LITTLE RIVER","WYNDHAM","You Yangs"
"Hard Court",null,"Tennis (Outdoor)","Mossfiel Reserve",6,"4. Good","6 - 10 Years",3029,"WYNDHA8514","26 - 50 Years","Road","Female, Male",144.692477999955,-37.8774369989504,9037,26649,"HOPPERS CROSSING","WYNDHAM","Heaths"
"Hard Court",null,"Tennis (Outdoor)","Price Reserse",2,"3. Average",null,3030,"WYNDHA8519","26 - 50 Years","Road",null,144.691764999526,-37.9733679988575,9038,26662,"WERRIBEE","WYNDHAM","Beach"
"Hard Court",null,"Tennis (Outdoor)","Saltwater Reserve",8,"5. Very Good",null,3030,"WYNDHA11003","0 - 5 Years","Road","Female, Male, Umpire/Officials, Unisex",144.752502000045,-37.9093509991689,9039,26581,"POINT COOK","WYNDHAM","Point Cook"
null,null,"Tennis (Outdoor)","Sanctuary Lakes Golf Club",3,null,null,3030,"WYNDHA8522",null,"Drive",null,144.762714000019,-37.8960969988911,9040,26670,"POINT COOK","WYNDHAM","Greg Norman"
"Hard Court",null,"Tennis (Outdoor)","Werribee Sports & Fitness Centre",4,"4. Good",null,3030,"WYNDHA8530",null,"Road","Female, Male",144.640316000408,-37.898600998879,9041,26688,"WERRIBEE","WYNDHAM","Ballan"
"Hard Court",null,"Tennis (Outdoor)","Willow Green Park Tennis Courts",2,"3. Average",null,3030,"WYNDHA8531","6 - 10 Years","Way",null,144.751022999603,-37.8856049989527,9042,26690,"POINT COOK","WYNDHAM","Spindrift"
"Hard Court",null,"Tennis (Outdoor)","Wootten Road Reserve",9,"5. Very Good",null,3029,"WYNDHA11006","0 - 5 Years","Road","Female, Male, Umpire/Officials, Unisex",144.660000000363,-37.8564999986376,9043,26588,"TARNEIT","WYNDHAM","Wootten"
"Hard Court",null,"Tennis (Outdoor)","Wyndham Green Tennis Courts",1,"3. Average",null,3024,"WYNDHA8532","6 - 10 Years","Place",null,144.619546000044,-37.8872439988968,9044,26691,"WYNDHAM VALE","WYNDHAM","Amber"
null,null,"Tennis (Outdoor)","Wyndham Waters",2,null,null,3029,"WYNDHA8535",null,"Road",null,144.726537000312,-37.8512209994346,9045,26697,"TRUGANINA","WYNDHAM","Sayers"
"Wooden Flooring",null,"Volleyball","Werribee Sports & Fitness Centre",3,"4. Good",null,3030,"WYNDHA8530",null,"Road","Female, Male",144.640316000408,-37.898600998879,9046,26689,"WERRIBEE","WYNDHAM","Ballan"
"Grass Running Track",null,"Athletics","Citizen’s Park Oval and Jack Dyer Pavilion",1,"2. Poor","11 + Years",3121,"YARRAC11007","26 - 50 Years","Street","Female, Male, Umpire/Officials",145.000351000084,-37.8172179993486,9047,17807,"RICHMOND","YARRA","Gleadell"
"Synthetic Running Track",null,"Athletics","George Knott Athletics Track and Ray Coverdale Pavilion",1,"4. Good","1 - 5 Years",3068,"YARRAC10978","26 - 50 Years","Road","Female, Male",145.002318999856,-37.7842049990468,9048,17767,"CLIFTON HILL","YARRA","Heidelberg"
"Grass",null,"Australian Rules Football","Alfred Crescent Oval and Pavilion",1,"4. Good","1 - 5 Years",3065,"YARRAC10993","0 - 5 Years","Street","Umpire/Officials, Unisex",144.98237699997,-37.7875299987931,9049,17789,"FITZROY","YARRA","Brunswick"
"Grass",null,"Australian Rules Football","Alphington Park Oval and Pavilion",1,"4. Good","1 - 5 Years",3067,"YARRAC10967","51 Years +","Road","Umpire/Officials, Unisex",145.029131000025,-37.7837789988703,9050,17749,"ALPHINGTON","YARRA","Parkview"
"Grass",null,"Australian Rules Football","Citizen’s Park Oval and Jack Dyer Pavilion",1,"2. Poor","11 + Years",3121,"YARRAC11007","26 - 50 Years","Street","Female, Male, Umpire/Officials",145.000351000084,-37.8172179993486,9051,17808,"RICHMOND","YARRA","Gleadell"
"Grass",null,"Australian Rules Football","Loughan Oval and Johnson Pavilion",1,"3. Average","1 - 5 Years",3121,"YARRAC10972","11 - 25 Years","Street","Umpire/Officials, Unisex",145.020461999478,-37.8285759991585,9052,17758,"BURNLEY","YARRA","Swan"
"Grass",null,"Australian Rules Football","Ramsden Street Oval and Pavilion",1,"2. Poor","Upgrade in progress",3078,"YARRAC10985","26 - 50 Years","Street",null,145.003110999733,-37.789872999414,9053,17779,"FAIRFIELD","YARRA","Ramsden"
"Grass",null,"Australian Rules Football","Victoria Park",1,"4. Good","< 1 Years",3067,"YARRAC10962","51 Years +","Street","Male, Umpire/Officials",144.996607000233,-37.7985799995072,9054,17744,"ABBOTSFORD","YARRA","Turner"
"Grass",null,"Australian Rules Football","W T Peterson Oval & Edinburgh Gardens Change Rooms",1,"4. Good","1 - 5 Years",3065,"YARRAC10995","51 Years +","Street","Umpire/Officials, Unisex",144.98237699997,-37.7875299987931,9055,17792,"FITZROY","YARRA","Brunswick"
"Wooden Gymnasium",null,"Basketball","Collingwood Secondary College",2,"3. Average","11 + Years",null,"YARRAC11029","11 - 25 Years","Way",null,144.989029999835,-37.8032559991894,9056,17842,"COLLINGWOOD","YARRA","Mc Cutcheon"
"Wooden Gymnasium",null,"Basketball","Fitzroy Secondary  School",1,null,null,null,"YARRAC11032",null,"Street",null,144.979156999458,-37.8009089994633,9057,17848,"FITZROY","YARRA","Falconer"
"Wooden Gymnasium",null,"Basketball","Melbourne Girls College",2,null,"11 + Years",null,"YARRAC11028","11 - 25 Years","Boulevard",null,145.012699000534,-37.8296899994432,9058,17840,"BURNLEY","YARRA","Yarra"
"Wooden Gymnasium",null,"Basketball","Princes Hill Seconary College",1,null,null,null,"YARRAC11030",null,"Strret",null,144.966586999947,-37.7818179988637,9059,17845,"PRINCES HILL","YARRA","Arnold"
null,null,"Bocce","Edinburgh Gardens Bocce Courts",1,null,null,3065,"YARRAC10999",null,"Street",null,144.98237699997,-37.7875299987931,9061,17798,"FITZROY","YARRA","Brunswick"
null,null,"Bocce","Hardy Gallagher Reserve Bocce Courts",3,null,null,3054,"YARRAC11006",null,"Street",null,144.967057999513,-37.7791969991143,9062,17806,"PRINCESS HILL","YARRA","Park"
null,null,"Boxing","Melbourne Aboriginal Sport and Recreation Gym",null,"3. Average","6 - 10 Years",null,"YARRAC11024","26 - 50 Years","Street",null,144.974448999909,-37.80546699893,9063,17835,"FITZROY","YARRA","Gertrude"
null,null,"Boxing","Richmond Boxing Club",null,"2. Poor","11 + Years",null,"YARRAC11023","26 - 50 Years","Street","Female, Male",145.001524999801,-37.8183799991808,9064,17833,"RICHMOND","YARRA","Gleadell"
null,null,"Boxing","Stanton Street Hall",null,"4. Good","< 1 Years",null,"YARRAC11022","26 - 50 Years","Street",null,144.988163999738,-37.8019559993457,9065,17831,"COLLINGWOOD","YARRA","Stanton"
null,null,"Canoe Polo","Richmond Recreation Centre",null,null,null,3121,"YARRAC11013",null,"Street",null,145.002381000219,-37.8176879988823,9066,17818,"RICHMOND","YARRA","Gleadell"
null,"9","Canoeing","Fairfield Canoe Club",null,null,null,null,"YARRAC11026",null,null,null,145.018758999676,-37.7856389988295,9067,17838,"FAIRFIELD","YARRA","The Esplanade"
null,null,"Canoeing","Fairfield Park Canoe Facility",null,"2. Poor","11 + Years",null,"YARRAC11027","26 - 50 Years","Street",null,145.004221999452,-37.7843699987633,9068,17839,"FAIRFIELD","DAREBIN","Heidelberg"
"Synthetic Pitch",null,"Cricket","Alan Bain Reserve and Pavilion",1,"4. Good","1 - 5 Years",3121,"YARRAC10983","11 - 25 Years","Street","Umpire/Officials, Unisex",145.001134000209,-37.830217999443,9069,17775,"CREMORNE","YARRA","Church"
"Synthetic Pitch",null,"Cricket","Alfred Crescent Oval and Pavilion",1,"4. Good","1 - 5 Years",3065,"YARRAC10993","0 - 5 Years","Street","Umpire/Officials, Unisex",144.98237699997,-37.7875299987931,9070,17790,"FITZROY","YARRA","Brunswick"
"Synthetic Pitch",null,"Cricket","Alphington Park Oval and Pavilion",1,"4. Good","1 - 5 Years",3067,"YARRAC10967","51 Years +","Road","Umpire/Officials, Unisex",145.029131000025,-37.7837789988703,9071,17750,"ALPHINGTON","YARRA","Parkview"
"Synthetic Pitch",null,"Cricket","Burnley Park Oval and O’Connell Pavilion",1,"4. Good","1 - 5 Years",3121,"YARRAC10970","0 - 5 Years","Grove","Umpire/Officials, Unisex",145.014145000422,-37.826102999182,9072,17754,"BURNLEY","YARRA","Park"
null,"576","Fitness / Gymnasium Workouts","Genesis Richmond",1,null,null,3121,"YARRAC11012",null,"Street",null,145.019798000531,-37.8272299989764,9111,17816,"RICHMOND","YARRA","Swan"
"Turf Pitch",null,"Cricket","Citizen’s Park Oval and Jack Dyer Pavilion",1,"2. Poor","11 + Years",3121,"YARRAC11007","26 - 50 Years","Street","Female, Male, Umpire/Officials",145.000351000084,-37.8172179993486,9073,17809,"RICHMOND","YARRA","Gleadell"
"Turf Pitch",null,"Cricket","Corben Oval",1,"2. Poor","11 + Years",3067,"YARRAC10964","26 - 50 Years","Road","Male",145.007718000194,-37.7956429992036,9074,17746,"ABBOTSFORD","YARRA","Yarra Bend"
"Synthetic Pitch",null,"Cricket","Fairfield Park Oval and Maxwell Sutherland Pavilion",1,"2. Poor","6 - 10 Years",3078,"YARRAC10984","26 - 50 Years","Road","Male, Umpire/Officials",145.009953999482,-37.7857379992617,9075,17778,"FAIRFIELD","YARRA","Yarra Bend"
"Synthetic Pitch",null,"Cricket","Fairlea Ovals",2,"1. Very Poor","11 + Years",3078,"YARRAC10989","26 - 50 Years","Road","Male",145.007718000194,-37.7956429992036,9076,17784,"FAIRFIELD","YARRA","Yarra Bend"
"Synthetic Pitch",null,"Cricket","Fletcher 1 and 2 Soccer Pitches and Graham Pavilion",1,"3. Average","11 + Years",3121,"YARRAC10971","26 - 50 Years","Street","Male, Umpire/Officials",145.020461999478,-37.8285759991585,9077,17756,"BURNLEY","YARRA","Swan"
"Turf Pitch",null,"Cricket","Loughan Oval and Johnson Pavilion",1,"3. Average","1 - 5 Years",3121,"YARRAC10972","11 - 25 Years","Street","Umpire/Officials, Unisex",145.020461999478,-37.8285759991585,9078,17759,"BURNLEY","YARRA","Swan"
"Turf Pitch",null,"Cricket","Mc Cutcheon Oval",1,null,null,null,"YARRAC11021",null,"Road",null,145.008575000236,-37.7999749989253,9079,17828,"FAIRFIELD","YARRA","Yarra Bend"
"Synthetic Pitch",null,"Cricket","Ramsden Street Oval and Pavilion",1,"2. Poor","Upgrade in progress",3078,"YARRAC10985","26 - 50 Years","Street",null,145.003110999733,-37.789872999414,9080,17780,"FAIRFIELD","YARRA","Ramsden"
"Turf Pitch",null,"Cricket","Sir Herbert Olney Oval",1,"2. Poor","11 + Years",3067,"YARRAC10963","26 - 50 Years","Road","Male, Umpire/Officials",145.007718000194,-37.7956429992036,9081,17745,"ABBOTSFORD","YARRA","Yarra Bend"
"Synthetic Pitch",null,"Cricket","W J COX",1,"1. Very Poor","11 + Years",null,"YARRAC11020","26 - 50 Years","Road","Male",145.008575000236,-37.7999749989253,9082,17827,"FAIRFIELD","YARRA","Yarra Bend"
"Synthetic Pitch",null,"Cricket","W T Peterson Oval & Edinburgh Gardens Change Rooms",1,"4. Good","1 - 5 Years",3065,"YARRAC10995","51 Years +","Street","Umpire/Officials, Unisex",144.98237699997,-37.7875299987931,9083,17793,"FITZROY","YARRA","Brunswick"
"Concrete Pitch",null,"Cricket","Westfield Ovals",1,null,null,3078,"YARRAC10990",null,"Road",null,145.007718000194,-37.7956429992036,9084,17786,"FAIRFIELD","YARRA","Yarra Bend"
"Turf Pitch",null,"Cricket","WT Long Oval",1,null,null,3067,"YARRAC10965",null,"Road",null,145.007718000194,-37.7956429992036,9085,17747,"ABBOTSFORD","YARRA","Yarra Bend"
"Road",null,"Cycling","Kew Boulevard",1,null,null,null,"YARRAC5306",null,"Boulevard",null,145.010119999928,-37.8065289989313,9086,27554,"KEW","BOROONDARA","Kew"
null,null,"Cycling","Yarra Boulevard Loop",1,null,null,null,"YARRAC5282",null,"Boulevard",null,145.015130000056,-37.7936999990177,9087,27531,"RICHMOND","BOROONDARA","Yarra"
null,"41","Fitness / Gymnasium Workouts","All Seasons Personal Fitness",null,null,null,3121,"YARRAC11054",null,"Road",null,144.991239000113,-37.8174789988842,9088,17870,"RICHMOND","YARRA","Bridge"
null,"30","Fitness / Gymnasium Workouts","Andrew Baxter Body Concepts Studio",null,null,null,3121,"YARRAC11055",null,"Street",null,144.99073600004,-37.8261149989673,9089,17871,"RICHMOND","YARRA","Cremorne"
null,"738","Fitness / Gymnasium Workouts","Anytime Fitness Alphington",null,null,null,3067,"YARRAC11034",null,"Road",null,145.031394000179,-37.7809929987406,9090,17850,"ALPHINGTON","YARRA","Heidelberg"
null,"8/53","Fitness / Gymnasium Workouts","Anytime Fitness Richmond",null,null,null,3121,"YARRAC11056",null,"Street",null,145.003817999949,-37.8203979986448,9091,17872,"RICHMOND","YARRA","Coppin"
null,"405","Fitness / Gymnasium Workouts","Australian Institute of Fitness",1,null,null,3121,"YARRAC11019",null,"Street",null,144.9981559995,-37.8249219994108,9092,17826,"RICHMOND","YARRA","Church"
null,"474","Fitness / Gymnasium Workouts","Balance & Control Pilates Studio",null,null,null,3121,"YARRAC11057",null,"Street",null,145.007549000222,-37.8115109992377,9093,17873,"RICHMOND","YARRA","Victoria"
null,null,"Fitness / Gymnasium Workouts","Collingwood Housing Estate Gymnasium",1,"3. Average","6 - 10 Years",3066,"YARRAC10981","11 - 25 Years","Street",null,144.992862999603,-37.8028699990725,9094,17773,"COLLINGWOOD","YARRA","Hoddle"
null,null,"Fitness / Gymnasium Workouts","Collingwood Leisure Centre",1,"5. Very Good","< 1 Years",3068,"YARRAC10979","26 - 50 Years","Street","Female, Male, Unisex",144.994351000382,-37.7879959988648,9095,17770,"CLIFTON HILL","YARRA","Turnbull"
null,"116","Fitness / Gymnasium Workouts","CrossFit Richmond",1,null,null,3121,"YARRAC11015",null,"Street",null,145.009579999452,-37.8181619991996,9096,17822,"RICHMOND","YARRA","Murphy"
null,"62","Fitness / Gymnasium Workouts","CrossFit Victoria",1,null,null,3065,"YARRAC11003",null,"Street",null,144.977529999805,-37.7959399986843,9097,17803,"FITZROY","YARRA","Rose"
null,"2/62","Fitness / Gymnasium Workouts","CrossFit Victoria",null,null,null,3065,"YARRAC11037",null,"Street",null,144.977607999633,-37.7959639990843,9098,17853,"FITZROY","YARRA","Rose"
null,"278","Fitness / Gymnasium Workouts","Curves North Fitzroy",null,null,null,3068,"YARRAC11050",null,"Road",null,144.985022000361,-37.7820899986971,9099,17866,"FITZROY NORTH","YARRA","St. Georges"
null,"193-197","Fitness / Gymnasium Workouts","Fernwood - Carlton",null,null,null,3053,"YARRAC11035",null,"Street",null,144.974951999817,-37.7955839986874,9100,17851,"CARLTON","MELBOURNE","Nicholson"
null,"197","Fitness / Gymnasium Workouts","Fernwood Carlton",1,null,null,3053,"YARRAC10975",null,"Street",null,144.975107999639,-37.795620998746,9101,17763,"CARLTON","MELBOURNE","Nicholson"
null,"133","Fitness / Gymnasium Workouts","Fitness 24 Hours",null,null,null,3065,"YARRAC11046",null,"Street",null,144.979215000182,-37.798089999533,9102,17862,"FITZROY","YARRA","Johnston"
null,"560","Fitness / Gymnasium Workouts","Fitness First",1,null,null,3121,"YARRAC11016",null,"Street",null,144.996400000277,-37.8293699987491,9103,17823,"RICHMOND","YARRA","Church"
null,"4","Fitness / Gymnasium Workouts","Fitness Live",null,null,null,3121,"YARRAC11059",null,"Street",null,145.002458000437,-37.8203349992102,9104,17875,"RICHMOND","YARRA","Stephenson"
null,"488","Fitness / Gymnasium Workouts","Fitness Ring Studio",null,null,null,3121,"YARRAC11066",null,"Street",null,144.994547999861,-37.8099369993726,9105,17882,"RICHMOND","YARRA","Victoria"
null,null,"Fitness / Gymnasium Workouts","fitness Xplosion",null,null,null,3068,"YARRAC11051",null,"Road",null,144.976276999653,-37.7913509990952,9106,17867,"FITZROY NORTH","YARRA","St. Georges"
null,"212","Fitness / Gymnasium Workouts","Fitnessland Gym",1,null,null,3078,"YARRAC10992",null,"Road",null,145.025109000068,-37.7790089989339,9107,17788,"FAIRFIELD","DAREBIN","Grange"
null,"358","Fitness / Gymnasium Workouts","FITROCk",1,null,null,3121,"YARRAC11017",null,"Street",null,144.988844000113,-37.8246289988723,9108,17824,"RICHMOND","YARRA","Swan"
null,"175","Fitness / Gymnasium Workouts","Fitzroy Pilates Studios",null,null,null,3065,"YARRAC11038",null,"Street",null,144.977592000372,-37.8022019986821,9109,17854,"FITZROY","YARRA","Brunswick"
null,null,"Fitness / Gymnasium Workouts","Fitzroy Swimming Pool",null,"3. Average","6 - 10 Years",3065,"YARRAC10998","26 - 50 Years","Parade","Female, Male",144.980899999659,-37.7938999987901,9110,17797,"FITZROY","YARRA","Alexandra"
null,"41","Fitness / Gymnasium Workouts","Goodlife Health Club",null,null,null,3065,"YARRAC11039",null,"Street",null,145.119814000317,-37.9733089990589,9112,17855,"FITZROY","KINGSTON","Johnson"
null,"191","Fitness / Gymnasium Workouts","Healthy Fit",null,null,null,3068,"YARRAC11052",null,"Road",null,144.982524999872,-37.7845329993936,9113,17868,"FITZROY NORTH","YARRA","St. Georges"
null,"191","Fitness / Gymnasium Workouts","Healthy Fit",1,null,null,3065,"YARRAC11004",null,"Road",null,144.982524999872,-37.7845329993936,9114,17804,"FITZROY","YARRA","St Georges"
null,"41","Fitness / Gymnasium Workouts","Hunts Fitness Centre",null,null,null,3065,"YARRAC11040",null,"Street",null,144.975968999449,-37.7980699990222,9115,17856,"FITZROY","YARRA","Johnston"
null,"41","Fitness / Gymnasium Workouts","Hunts Squash & Fitness Centre",1,null,null,3065,"YARRAC11001",null,"Street",null,144.975968999449,-37.7980699990222,9116,17800,"FITZROY","YARRA","Johnston"
null,"107","Fitness / Gymnasium Workouts","Hurl's Fitness",1,null,null,3068,"YARRAC10980",null,"Parade",null,144.989794000567,-37.789496999248,9117,17772,"CLIFTON HILL","YARRA","Queens"
null,"401","Fitness / Gymnasium Workouts","Lifestyle Fitness Centre",1,null,null,3121,"YARRAC11018",null,"Street",null,144.967067999553,-37.8099239986841,9118,17825,"RICHMOND","MELBOURNE","Church"
null,null,"Fitness / Gymnasium Workouts","Melbourne Aboriginal Sport and Recreation Gym",null,null,null,null,"YARRAC11024",null,"Street",null,144.974448999909,-37.80546699893,9119,17836,"FITZROY","YARRA","Gertrude"
null,"81","Fitness / Gymnasium Workouts","Mind and Body",null,null,null,3065,"YARRAC11041",null,"Street",null,144.975968999449,-37.7980699990222,9120,17857,"FITZROY","YARRA","Johnston"
null,"25","Fitness / Gymnasium Workouts","Muscle & Body Shape Gym",1,null,null,3121,"YARRAC11011",null,"Street",null,144.992692999856,-37.8237729993997,9121,17815,"RICHMOND","YARRA","Wangaratta"
null,"45","Fitness / Gymnasium Workouts","Pisces Speacilised Fitness",1,null,null,3121,"YARRAC11014",null,"Road",null,144.9914549995,-37.8175269991757,9122,17821,"RICHMOND","YARRA","Bridge"
null,"83","Fitness / Gymnasium Workouts","Positive Edge Personal Training",null,null,null,3065,"YARRAC11042",null,"Parade",null,144.978209999865,-37.7933239991468,9123,17858,"FITZROY","YARRA","Alexandra"
null,"252","Fitness / Gymnasium Workouts","Richmond  studio and Aerial Divas",null,null,null,3121,"YARRAC11060",null,"Street",null,144.996591000397,-37.834324998948,9124,17876,"RICHMOND","YARRA","Church"
null,null,"Fitness / Gymnasium Workouts","Richmond Boxing Club",null,null,null,null,"YARRAC11023",null,"Street",null,145.001524999801,-37.8183799991808,9125,17834,"RICHMOND","YARRA","Gleadell"
null,null,"Fitness / Gymnasium Workouts","Richmond Recreation Centre",1,null,null,3121,"YARRAC11013",null,"Street",null,145.002381000219,-37.8176879988823,9126,17820,"RICHMOND","YARRA","Gleadell"
null,null,"Fitness / Gymnasium Workouts","Richmond Recreation Centre",1,"4. Good","6 - 10 Years",3121,"YARRAC11010","51 Years +","Street",null,145.000351000084,-37.8172179993486,9127,17813,"RICHMOND","YARRA","Gleadell"
null,"621","Fitness / Gymnasium Workouts","Simon's Personal Training Studio",null,null,null,3065,"YARRAC11043",null,"Street",null,144.977400999825,-37.8045739988192,9128,17859,"FITZROY","YARRA","Brunswick"
null,"103","Fitness / Gymnasium Workouts","Skulpt Personal Training Richmond Personal Training",null,null,null,3121,"YARRAC11061",null,"Street",null,145.012396000209,-37.8181599988249,9129,17877,"RICHMOND","YARRA","Murphy"
null,"620","Fitness / Gymnasium Workouts","Space Health Club",null,null,null,3121,"YARRAC11062",null,"Street",null,144.994547999861,-37.8099369993726,9130,17878,"RICHMOND","YARRA","Victoria"
null,"374","Fitness / Gymnasium Workouts","Srpt Elysium Health & Lifestyle",null,null,null,3121,"YARRAC11063",null,"Road",null,145.004050000553,-37.8192889988919,9131,17879,"RICHMOND","YARRA","Bridge"
null,null,"Fitness / Gymnasium Workouts","Stanton Street Hall",null,null,null,null,"YARRAC11022",null,"Street",null,144.988163999738,-37.8019559993457,9132,17832,"COLLINGWOOD","YARRA","Stanton"
null,"732","Fitness / Gymnasium Workouts","The Spin Room",null,null,null,3068,"YARRAC11053",null,"Street",null,144.978000000101,-37.7822469987075,9133,17869,"FITZROY NORTH","YARRA","Nicholson"
null,"135","Fitness / Gymnasium Workouts","Time 4 Fitness",1,null,null,3065,"YARRAC11000",null,"Street",null,144.975968999449,-37.7980699990222,9134,17799,"FITZROY","YARRA","Johnston"
null,"33","Fitness / Gymnasium Workouts","Unique Fitness Studio",null,null,null,3121,"YARRAC11064",null,"Street",null,144.996172000033,-37.8254889987352,9135,17880,"RICHMOND","YARRA","Waverley"
null,"106","Fitness / Gymnasium Workouts","Vibes Fitness",null,null,null,3065,"YARRAC11044",null,"Street",null,144.979798999844,-37.7955719994591,9136,17860,"FITZROY","YARRA","Leicester"
null,"393","Fitness / Gymnasium Workouts","Vigor Health & Fitness",1,null,null,3065,"YARRAC11002",null,"Street",null,144.984292999653,-37.7976119992192,9137,17802,"FITZROY","YARRA","Smith"
null,"393","Fitness / Gymnasium Workouts","Vigor Health & Fitness",null,null,null,3065,"YARRAC11045",null,"Street",null,144.984292999653,-37.7976119992192,9138,17861,"FITZROY","YARRA","Smith"
null,"509-511","Fitness / Gymnasium Workouts","Zap Fitness Richmond",null,null,null,3121,"YARRAC11058",null,"Road",null,145.007592000437,-37.8192009991825,9139,17874,"RICHMOND","YARRA","Bridge"
"Grass",null,"Gaelic Football","Mc Cutcheon Oval",null,null,null,null,"YARRAC11021",null,"Road",null,145.008575000236,-37.7999749989253,9140,17829,"FAIRFIELD","YARRA","Yarra Bend"
"9 Hole Course - Public",null,"Golf","Burnley Golf Course",1,"4. Good","1 - 5 Years",3121,"YARRAC10974","26 - 50 Years","Street","Female, Male",145.020461999478,-37.8285759991585,9141,17762,"BURNLEY","YARRA","Swan"
"18 Hole Course - Private",null,"Golf","Latrobe Golf Course",1,null,null,3078,"YARRAC10991",null,"Road",null,145.034195999665,-37.786366999206,9142,17787,"FAIRFIELD","YARRA","Farm"
"18 Hole Course - Public",null,"Golf","Yarra Bend Golf Course",1,"4. Good","1 - 5 Years",3067,"YARRAC10966","26 - 50 Years","Road","Unisex",145.007718000194,-37.7956429992036,9143,17748,"ABBOTSFORD","YARRA","Yarra Bend"
"Grass",null,"Lawn Bowls","Alphington Bowls Club",2,"3. Average","1 - 5 Years",3067,"YARRAC10968",null,"Road",null,145.029131000025,-37.7837789988703,9144,17752,"ALPHINGTON","YARRA","Parkview"
"Synthetic Pitch",null,"Lawn Bowls","Fitzroy Victoria Bowls and Sports Club",2,"4. Good","6 - 10 Years",3065,"YARRAC10996","26 - 50 Years","Street",null,144.98237699997,-37.7875299987931,9145,17794,"FITZROY","YARRA","Brunswick"
"Grass",null,"Lawn Bowls","Richmond Union Bowling Club",2,"4. Good","1 - 5 Years",3121,"YARRAC11008","26 - 50 Years","Street",null,145.000351000084,-37.8172179993486,9146,17810,"RICHMOND","YARRA","Gleadell"
null,"207","Martial Arts","Aiki No Michi Aikido",null,null,null,3065,"YARRAC11047",null,"Street",null,144.975968999449,-37.7980699990222,9147,17863,"FITZROY","YARRA","Johnston"
null,"478","Martial Arts","Australian Kung Fu Acadamy",null,null,null,3066,"YARRAC11036",null,"Street",null,144.982586999449,-37.808726998834,9148,17852,"COLLINGWOOD","YARRA","Smith"
null,"478","Martial Arts","Australian Kung Fu Acadamy",1,null,null,3066,"YARRAC10982",null,"Street",null,144.982586999449,-37.808726998834,9149,17774,"COLLINGWOOD","YARRA","Smith"
null,"555","Martial Arts","Dominance Mixed Martial Arts",null,null,null,3121,"YARRAC11065",null,"Street",null,144.994547999861,-37.8099369993726,9150,17881,"RICHMOND","YARRA","Victoria"
null,"214","Martial Arts","Field Aikido Centre",null,null,null,3065,"YARRAC11048",null,"Street",null,144.983714999509,-37.7979679987615,9151,17864,"FITZROY","YARRA","Kerr"
null,null,"Martial Arts","George Knott Athletics Track and Ray Coverdale Pavilion",null,null,null,3068,"YARRAC10978",null,"Road",null,145.002318999856,-37.7842049990468,9152,17769,"CLIFTON HILL","YARRA","Heidelberg"
null,"310","Martial Arts","Inner City Systema",null,null,null,3065,"YARRAC11049",null,"Street",null,144.981553999496,-37.8077079989347,9153,17865,"FITZROY","YARRA","Gore"
null,"439","Martial Arts","Seido-Juku Karate",null,null,null,3121,"YARRAC11067",null,"Street",null,144.988844000113,-37.8246289988723,9154,17883,"RICHMOND","YARRA","Swan"
null,"96","Martial Arts","Wing Chun Kung Fu Jee Shin",null,null,null,3067,"YARRAC11033",null,"Street",null,144.992341999883,-37.805706998662,9155,17849,"ABBOTSFORD","YARRA","Hoddle"
"Synthetic",null,"Netball","Mayor’s Park Tennis Courts and Clubhouse",2,"4. Good","6 - 10 Years",3068,"YARRAC10977","26 - 50 Years","Street","Female, Male",144.994351000382,-37.7879959988648,9156,17765,"CLIFTON HILL","YARRA","Hoddle"
"Synthetic",null,"Netball","Melbourne Girls College",3,null,null,null,"YARRAC11028",null,"Boulevard",null,145.012699000534,-37.8296899994432,9157,17841,"BURNLEY","YARRA","Yarra"
"Synthetic",null,"Netball","Richmond Community Courts",2,"3. Average","6 - 10 Years",3121,"YARRAC11009","11 - 25 Years","Street","Female, Male",145.000351000084,-37.8172179993486,9158,17811,"RICHMOND","YARRA","Gleadell"
"Plexipave",null,"Netball","Ryan’s Reserve Netball and Tennis Facility and Pavilion",4,"3. Average","6 - 10 Years",3121,"YARRAC10973","11 - 25 Years","Street","Female, Male",145.009956000176,-37.8273099986845,9159,17760,"BURNLEY","YARRA","Swan"
null,null,"Skating","Edinburgh Gardens Skate Bowl",1,"3. Average","1 - 5 Years",3068,"YARRAC11005","11 - 25 Years","Road",null,144.983024000391,-37.7866149993799,9160,17805,"FITZROY NORTH","YARRA","St Georges"
null,null,"Skating","Quarries Park Skate Facility",1,null,null,3078,"YARRAC10988",null,"Road",null,145.004188000347,-37.790642998642,9161,17783,"FAIRFIELD","YARRA","Heidelberg"
"Grass",null,"Soccer","Alan Bain Reserve and Pavilion",1,"4. Good","1 - 5 Years",3121,"YARRAC10983","11 - 25 Years","Street","Umpire/Officials, Unisex",145.001134000209,-37.830217999443,9162,17776,"CREMORNE","YARRA","Church"
"Grass",null,"Soccer","Alphington Park Oval and Pavilion",1,"4. Good","1 - 5 Years",3067,"YARRAC10967","51 Years +","Road","Umpire/Officials, Unisex",145.029131000025,-37.7837789988703,9163,17751,"ALPHINGTON","YARRA","Parkview"
"Grass",null,"Soccer","Atherton Gardens Reserve",1,null,null,3065,"YARRAC10994",null,"Street",null,144.979067000538,-37.8033149989429,9164,17791,"FITZROY","YARRA","Napier"
"Grass",null,"Soccer","Bastow 1 and 2 Soccer Pitches and Gillon Pavilion",2,"3. Average","1 - 5 Years",3121,"YARRAC10969","26 - 50 Years","Street","Male, Umpire/Officials",145.020461999478,-37.8285759991585,9165,17753,"BURNLEY","YARRA","Swan"
"Grass",null,"Soccer","Burnley Park Oval and O’Connell Pavilion",1,"4. Good","1 - 5 Years",3121,"YARRAC10970","0 - 5 Years","Grove","Umpire/Officials, Unisex",145.014145000422,-37.826102999182,9166,17755,"BURNLEY","YARRA","Park"
"Grass",null,"Soccer","Coulson Reserve and Pavilion Soccer Pitch and Pavilion",1,"3. Average","1 - 5 Years",3068,"YARRAC10976","26 - 50 Years","Parade","Male, Umpire/Officials",144.996729000175,-37.7863849989028,9167,17764,"CLIFTON HILL","YARRA","Queens"
"Grass",null,"Soccer","Fairfield Park Oval and Maxwell Sutherland Pavilion",1,"2. Poor","6 - 10 Years",3078,"YARRAC10984","26 - 50 Years","Road","Male, Umpire/Officials",145.009953999482,-37.7857379992617,9168,17777,"FAIRFIELD","YARRA","Yarra Bend"
"Grass",null,"Soccer","Fairlea Ovals",null,"1. Very Poor","11 + Years",3078,"YARRAC10989","26 - 50 Years","Road","Male",145.007718000194,-37.7956429992036,9169,17785,"FAIRFIELD","YARRA","Yarra Bend"
"Grass",null,"Soccer","Fletcher 1 and 2 Soccer Pitches and Graham Pavilion",1,"3. Average","11 + Years",3121,"YARRAC10971","26 - 50 Years","Street","Male, Umpire/Officials",145.020461999478,-37.8285759991585,9170,17757,"BURNLEY","YARRA","Swan"
"Grass",null,"Soccer","George Knott Athletics Track and Ray Coverdale Pavilion",1,"4. Good","1 - 5 Years",3068,"YARRAC10978","26 - 50 Years","Road","Female, Male",145.002318999856,-37.7842049990468,9171,17768,"CLIFTON HILL","YARRA","Heidelberg"
"Grass",null,"Soccer","Mc Cutcheon Oval",null,null,null,null,"YARRAC11021",null,"Road",null,145.008575000236,-37.7999749989253,9172,17830,"FAIRFIELD","YARRA","Yarra Bend"
"Grass",null,"Soccer","Walker Street Soccer Pitch",1,null,null,3078,"YARRAC10986",null,"Street",null,145.003110999733,-37.789872999414,9173,17781,"FAIRFIELD","YARRA","Walker"
"Grass",null,"Soccer","Yambla Reserve and Pavilion",1,"3. Average","6 - 10 Years",3078,"YARRAC10987","26 - 50 Years","Street","Male, Umpire/Officials",145.003110999733,-37.789872999414,9174,17782,"FAIRFIELD","YARRA","Walker"
"Wooden Gymnasium",null,"Soccer (Indoor Soccer / Futsal)","Collingwood Secondary College",2,null,null,null,"YARRAC11029",null,"Way",null,144.989029999835,-37.8032559991894,9175,17844,"COLLINGWOOD","YARRA","Mc Cutcheon"
"Wooden Gymnasium",null,"Soccer (Indoor Soccer / Futsal)","Princes Hill Seconary College",1,null,null,null,"YARRAC11030",null,"Strret",null,144.966586999947,-37.7818179988637,9176,17846,"PRINCES HILL","YARRA","Arnold"
null,null,"Soccer (Indoor Soccer / Futsal)","Princess Hill Primary School",1,null,null,null,"YARRAC11031",null,"Street",null,144.962780999996,-37.7809919994595,9177,17847,"PRINCES HILL","MELBOURNE","Pigdon"
null,"41","Squash / Racquetball","Hunts Squash & Fitness Centre",null,null,null,3065,"YARRAC11001",null,"Street",null,144.975968999449,-37.7980699990222,9178,17801,"FITZROY","YARRA","Johnston"
"25m Pool - Indoor, Childrens Learning Pool, Toddlers Pool",null,"Swimming","Collingwood Leisure Centre",3,"5. Very Good","< 1 Years",3068,"YARRAC10979","26 - 50 Years","Street","Female, Male, Unisex",144.994351000382,-37.7879959988648,9179,17771,"CLIFTON HILL","YARRA","Turnbull"
"50m Pool - Outdoor, Toddlers Pool",null,"Swimming","Fitzroy Swimming Pool",2,"3. Average","6 - 10 Years",3065,"YARRAC10998","26 - 50 Years","Parade","Female, Male",144.980899999659,-37.7938999987901,9180,17796,"FITZROY","YARRA","Alexandra"
"50m Pool - Indoor, Childrens Learning Pool, Toddlers Pool",null,"Swimming","Richmond Recreation Centre",3,null,null,3121,"YARRAC11010",null,"Street",null,145.000351000084,-37.8172179993486,9181,17814,"RICHMOND","YARRA","Gleadell"
"50m Pool - Indoor, Toddlers Pool",null,"Swimming","Richmond Recreation Centre",2,"4. Good","6 - 10 Years",3121,"YARRAC11013","51 Years +","Street","Female, Male",145.002381000219,-37.8176879988823,9182,17819,"RICHMOND","YARRA","Gleadell"
null,"18","Tennis (Indoor)","Melbourne Royal Tennis",null,null,null,3121,"YARRAC11025",null,"Street",null,144.990381999439,-37.8184729988649,9183,17837,"RICHMOND","YARRA","Sherwood"
"Clay",null,"Tennis (Outdoor)","Fitzroy Tennis Courts and Clubhouse",6,"3. Average","Upgrade in progress",3065,"YARRAC10997","26 - 50 Years","Street","Female, Male",144.98237699997,-37.7875299987931,9184,17795,"FITZROY","YARRA","Brunswick"
"Artificial Turf",null,"Tennis (Outdoor)","Mayor’s Park Tennis Courts and Clubhouse",4,"4. Good","6 - 10 Years",3068,"YARRAC10977","26 - 50 Years","Street","Female, Male",144.994351000382,-37.7879959988648,9185,17766,"CLIFTON HILL","YARRA","Hoddle"
"Artificial Turf, Plexipave, Synthetic Pitch",null,"Tennis (Outdoor)","Richmond Community Courts",2,null,null,3121,"YARRAC11009",null,"Street",null,145.000351000084,-37.8172179993486,9186,17812,"RICHMOND","YARRA","Gleadell"
"Plexipave",null,"Tennis (Outdoor)","Ryan’s Reserve Netball and Tennis Facility and Pavilion",4,"3. Average","6 - 10 Years",3121,"YARRAC10973","11 - 25 Years","Street","Female, Male",145.009956000176,-37.8273099986845,9187,17761,"BURNLEY","YARRA","Swan"
null,null,"Underwater Hockey","Richmond Recreation Centre",1,null,null,3121,"YARRAC11013",null,"Street",null,145.002381000219,-37.8176879988823,9188,17817,"RICHMOND","YARRA","Gleadell"
"Wooden Gymnasium",null,"Volleyball","Collingwood Secondary College",2,null,null,null,"YARRAC11029",null,"Way",null,144.989029999835,-37.8032559991894,9189,17843,"COLLINGWOOD","YARRA","Mc Cutcheon"
"Synthetic Pitch",null,"Cricket","Mt Lilydale Sports Ovals",1,null,null,3140,"YARRAR11459",null,"Road",null,145.360512999884,-37.7447989990106,9252,18581,"LILYDALE","YARRA RANGES","Quarry"
"Outdoor Archery",null,"Archery","Sherbrooke Archers",1,"3. Average","11 + Years",3156,"YARRAR11487","26 - 50 Years","Road",null,145.307646999988,-37.9052789987722,9190,18642,"UPPER FERNTREE GULLY","YARRA RANGES","New"
"Synthetic Running Track",null,"Athletics","Morrison Reserve",1,"5. Very Good","Upgrade in progress",3796,"YARRAR11476","0 - 5 Years","Road","Unisex",145.386234999633,-37.7734509994703,9191,18615,"MOUNT EVELYN","YARRA RANGES","Old Hereford"
"Grass","1A","Australian Rules Football","Belgrave Recreation Reserve",1,"4. Good","6 - 10 Years",3160,"YARRAR11425","26 - 50 Years","Road","Male, Umpire/Officials",145.344860000315,-37.9157399994145,9192,18505,"BELGRAVE","YARRA RANGES","Reserve"
"Grass","10/12","Australian Rules Football","Belgrave South Recreation Reserve",1,"3. Average","1 - 5 Years",3160,"YARRAR11426","26 - 50 Years","Road","Male, Umpire/Officials",145.355946999893,-37.9315359992218,9193,18507,"BELGRAVE SOUTH","YARRA RANGES","Mt Morton"
"Grass",null,"Australian Rules Football","Brice Avenue Reserve",1,"2. Poor","1 - 5 Years",3138,"YARRAR11469","26 - 50 Years","Avenue",null,145.31830900054,-37.7845479992296,9194,18606,"MOOROOLBARK","YARRA RANGES","Brice"
"Grass","249/263","Australian Rules Football","Don Road?Sporting Complex",1,"4. Good","1 - 5 Years",3777,"YARRAR11438","26 - 50 Years","Road","Male, Umpire/Officials",145.539657999613,-37.6687859987112,9195,18530,"HEALESVILLE","YARRA RANGES","Don"
"Grass",null,"Australian Rules Football","Halley Supple Reserve",1,"3. Average","1 - 5 Years",3770,"YARRAR11432","26 - 50 Years","0","Male, Umpire/Officials",145.380213999493,-37.7294849987709,9196,18520,"COLDSTREAM","YARRA RANGES","South Gateway"
"Grass",null,"Australian Rules Football","Ingram Road Reserve",1,"2. Poor","6 - 10 Years",3770,"YARRAR11431","26 - 50 Years","Road",null,145.382759000325,-37.7344189990578,9197,18518,"COLDSTREAM","YARRA RANGES","Ingram"
"Grass",null,"Australian Rules Football","Kalorama Memorial Reserve",1,"2. Poor","11 + Years",3766,"YARRAR11443","26 - 50 Years","Road",null,145.379050999487,-37.8166369993212,9198,18545,"KALORAMA","YARRA RANGES","Grange"
"Grass",null,"Australian Rules Football","Kiloran Park",2,"3. Average","6 - 10 Years",3137,"YARRAR11451","26 - 50 Years","Street","Male, Umpire/Officials",145.310340999574,-37.7931839993269,9199,18561,"KILSYTH","YARRA RANGES","Macmillan"
"Grass",null,"Australian Rules Football","Kilsyth Recreation Reserve",1,"4. Good","1 - 5 Years",3137,"YARRAR11445","26 - 50 Years","Road","Male, Umpire/Officials",145.309517000553,-37.8038499986545,9200,18549,"KILSYTH","YARRA RANGES","Colchester"
"Grass","33","Australian Rules Football","Kimberley Reserve",2,"3. Average","6 - 10 Years",3116,"YARRAR11427","26 - 50 Years","Drive","Male",145.309789000431,-37.7520249989787,9201,18510,"CHIRNSIDE PARK","YARRA RANGES","Kimberley"
"Grass",null,"Australian Rules Football","Lilydale Recreation Reserve",1,"4. Good","1 - 5 Years",3140,"YARRAR11457","26 - 50 Years","Street","Male, Umpire/Officials",145.349190000141,-37.7555079987402,9202,18575,"LILYDALE","YARRA RANGES","Main"
"Grass",null,"Australian Rules Football","Monbulk Reserve",1,"3. Average","1 - 5 Years",3793,"YARRAR11465","26 - 50 Years","Road","Male, Umpire/Officials",145.410421000297,-37.8746259991895,9203,18591,"MONBULK","YARRA RANGES","Moores"
"Grass",null,"Australian Rules Football","Montrose Recreation Reserve",1,"5. Very Good","1 - 5 Years",3765,"YARRAR11467","26 - 50 Years","Road","Male, Umpire/Officials",145.344301999434,-37.8128359992941,9204,18599,"MONTROSE","YARRA RANGES","Mt Dandenong Tourist"
"Grass",null,"Australian Rules Football","Mooroolbark Heights Reserve",1,"4. Good","1 - 5 Years",3138,"YARRAR11472","26 - 50 Years","Avenue","Male, Umpire/Officials",145.325745999451,-37.7927909990461,9205,18610,"MOOROOLBARK","YARRA RANGES","Longfellow"
"Grass",null,"Australian Rules Football","Mount Evelyn Recreation Reserve",1,"3. Average","1 - 5 Years",3796,"YARRAR11478","26 - 50 Years","Road","Male, Umpire/Officials",145.382252000205,-37.7955239992871,9206,18621,"MOUNT EVELYN","YARRA RANGES","Tramway"
"Grass",null,"Australian Rules Football","Mt Lilydale Sports Ovals",1,null,null,3140,"YARRAR11459",null,"Road",null,145.360512999884,-37.7447989990106,9207,18580,"LILYDALE","YARRA RANGES","Quarry"
"Grass",null,"Australian Rules Football","Narre Warren East Reserve",1,"3. Average","6 - 10 Years",3804,"YARRAR11479","26 - 50 Years","Road","Male, Umpire/Officials",145.361632999578,-37.9635269992957,9208,18624,"NARRE WARREN EAST","YARRA RANGES","Berwick"
"Grass",null,"Australian Rules Football","Olinda Recreation Reserve",1,"2. Poor","Upgrade in progress",3788,"YARRAR11482","26 - 50 Years","Road","Male, Umpire/Officials",145.36975600039,-37.8535529987935,9209,18628,"OLINDA","YARRA RANGES","The Georgian"
"Grass",null,"Australian Rules Football","Pinks Reserve",2,"3. Average","1 - 5 Years",3137,"YARRAR11449","26 - 50 Years","Road","Male, Umpire/Officials",145.31925899978,-37.8134849991661,9210,18555,"KILSYTH","YARRA RANGES","Liverpool"
"Grass",null,"Australian Rules Football","Powelltown Reserve",1,"3. Average","1 - 5 Years",3797,"YARRAR11483","26 - 50 Years","Road","Male, Umpire/Officials",145.747704000411,-37.864429998935,9211,18631,"POWELLTOWN","YARRA RANGES","Recreation"
"Grass",null,"Australian Rules Football","Queens Park",1,"3. Average","6 - 10 Years",3777,"YARRAR11439","26 - 50 Years","Road","Male, Umpire/Officials",145.52312100001,-37.6537419986681,9212,18534,"HEALESVILLE","YARRA RANGES","Don"
"Grass",null,"Australian Rules Football","Seville Recreation Reserve",2,"3. Average","< 1 Years",3139,"YARRAR11485","26 - 50 Years","Road","Male, Umpire/Officials",145.461873000365,-37.7801409989492,9213,18635,"SEVILLE","YARRA RANGES","Monbulk-Seville"
"Grass",null,"Australian Rules Football","Silvan Recreation Reserve",1,"4. Good","1 - 5 Years",3795,"YARRAR11486","26 - 50 Years","Road","Male, Umpire/Officials",145.428320999952,-37.8307269988194,9214,18639,"SILVAN","YARRA RANGES","Silvan"
"Grass",null,"Australian Rules Football","Upwey Reserve",2,"2. Poor","1 - 5 Years",3158,"YARRAR11489","26 - 50 Years","Avenue","Male, Umpire/Officials",145.336971000406,-37.9030999992333,9215,18645,"UPWEY","YARRA RANGES","Chosen"
"Grass",null,"Australian Rules Football","Wandin East Recreation Reserve?",null,"4. Good","1 - 5 Years",3139,"YARRAR11492","0 - 5 Years","Road","Unisex",145.458532999892,-37.8153089991026,9216,18657,"WANDIN EAST","YARRA RANGES","Monbulk-Seville"
"Grass",null,"Australian Rules Football","Wandin North Reserve",1,"3. Average","1 - 5 Years",3139,"YARRAR11493","26 - 50 Years","Road","Male, Umpire/Officials",145.430298000084,-37.78246999868,9217,18659,"WANDIN NORTH","YARRA RANGES","Clegg"
null,null,"Cycling","Thunderpoint Track",null,null,null,null,"WARRNA5437",null,null,null,142.46471599955,-38.3982329991545,8292,27692,null,"WARRNAMBOOL",null
"Grass",null,"Australian Rules Football","Warburton Recreation Reserve",1,"4. Good","1 - 5 Years",3799,"YARRAR11495","26 - 50 Years","Hwy","Male, Umpire/Officials",145.69511399961,-37.7515019986903,9218,18663,"WARBURTON","YARRA RANGES","Warburton"
"Grass",null,"Australian Rules Football","Wesburn Recreation Reserve",2,"3. Average","6 - 10 Years",3799,"YARRAR11498","26 - 50 Years","Road","Male, Umpire/Officials",145.64825899954,-37.7722819989691,9219,18669,"WESBURN","YARRA RANGES","Old Warburton"
"Grass",null,"Australian Rules Football","Wickams Road Reserve",1,"3. Average","1 - 5 Years",3139,"YARRAR11452","26 - 50 Years","Road","Male, Umpire/Officials",145.570748000438,-37.788207998787,9220,18567,"LAUCHING PLACE","YARRA RANGES","Wickhams"
"Grass",null,"Australian Rules Football","Woori Yallock Reserve",1,"4. Good","6 - 10 Years",3139,"YARRAR11499","26 - 50 Years","Lane","Male, Umpire/Officials",145.532739999597,-37.7833709991624,9221,18673,"WOORI YALLOCK","YARRA RANGES","Shevlins"
"Grass",null,"Australian Rules Football","Yarra Glen Recreation Reserve",1,"3. Average","Upgrade in progress",3775,"YARRAR11503","26 - 50 Years","Hwy","Male, Umpire/Officials",145.382560999568,-37.6603069989998,9222,18682,"YARRA GLEN","YARRA RANGES","Melba"
"Grass",null,"Australian Rules Football","Yarra Junction Recreation Reserve",1,"4. Good","1 - 5 Years",3797,"YARRAR11504","26 - 50 Years","Road","Male, Umpire/Officials",145.612006000377,-37.7804689988622,9223,18685,"YARRA JUNCTION","YARRA RANGES","Park"
"Wooden Flooring","95","Badminton","Kilsyth Sports Centre",6,"4. Good","N/A",3137,"YARRAR11450","11 - 25 Years","Road","Female, Male",145.31925899978,-37.8134849991661,9224,18559,"KILSYTH","YARRA RANGES","Liverpool"
"Wooden Gymnasium","95","Basketball","Kilsyth Sports Centre",6,"4. Good","Upgrade in progress",3137,"YARRAR11450","11 - 25 Years","Road","Female, Male",145.31925899978,-37.8134849991661,9225,18558,"KILSYTH","YARRA RANGES","Liverpool"
null,null,"BMX","Eastfield BMX Club",null,null,null,null,"YARRAR5442",null,"Road",null,145.306838999807,-37.8120049986931,9226,27696,"KILSYTH","YARRA RANGES","Colchester"
null,"36","BMX","Healesville Skate & BMX",1,"3. Average","N/A",3777,"YARRAR11440","6 - 10 Years","Road",null,145.523706999559,-37.6522159995298,9227,18540,"HEALESVILLE","YARRA RANGES","Don"
"Dirt",null,"BMX","Monbulk Skate & BMX",1,"3. Average","11 + Years",3793,"YARRAR11466","6 - 10 Years","Road",null,145.409214000243,-37.8759889994365,9228,18598,"MONBULK","YARRA RANGES","Moores"
"Synthetic Pitch",null,"Cricket","Baynes Reserve",1,"2. Poor","11 + Years",3793,"YARRAR11463","26 - 50 Years","Road",null,145.401864999856,-37.8761849993801,9229,18588,"MONBULK","YARRA RANGES","Baynes Park"
"Synthetic Pitch","1A","Cricket","Belgrave Recreation Reserve",1,"4. Good",null,3160,"YARRAR11425","26 - 50 Years","Road","Male, Umpire/Officials",145.344860000315,-37.9157399994145,9230,18506,"BELGRAVE","YARRA RANGES","Reserve"
"Synthetic Pitch","10/12","Cricket","Belgrave South Recreation Reserve",1,"3. Average","1 - 5 Years",3160,"YARRAR11426","26 - 50 Years","Road","Male, Umpire/Officials",145.355946999893,-37.9315359992218,9231,18508,"BELGRAVE SOUTH","YARRA RANGES","Mt Morton"
"Synthetic Pitch",null,"Cricket","Brice Avenue Reserve",1,"3. Average","1 - 5 Years",3138,"YARRAR11469","26 - 50 Years","Avenue",null,145.31830900054,-37.7845479992296,9232,18607,"MOOROOLBARK","YARRA RANGES","Brice"
"Synthetic Pitch","249/263","Cricket","Don Road?Sporting Complex",1,"3. Average","1 - 5 Years",3777,"YARRAR11438","26 - 50 Years","Road","Male, Umpire/Officials",145.539657999613,-37.6687859987112,9233,18531,"HEALESVILLE","YARRA RANGES","Don"
"Synthetic Pitch",null,"Cricket","Ernest Lloyd Reserve",1,"2. Poor","N/A",3797,"YARRAR11435","26 - 50 Years","Road",null,145.646884999907,-37.8156849993894,9234,18526,"GLADYSDALE","YARRA RANGES","Little Yarra"
"Concrete Pitch",null,"Cricket","Ferny Creek Reserve",1,null,null,3786,"YARRAR11434",null,"Road",null,145.34579599954,-37.8753459990078,9235,18524,"FERNY CREEK","YARRA RANGES","Clarkmont"
"Synthetic Pitch",null,"Cricket","Gruyere Recreation Reserve",1,"3. Average","6 - 10 Years",3770,"YARRAR11436","26 - 50 Years","Road","Male, Umpire/Officials",145.445083999599,-37.7308449986947,9236,18527,"GRUYERE","YARRA RANGES","Killara"
"Synthetic Pitch",null,"Cricket","Halley Supple Reserve",1,"3. Average","1 - 5 Years",3770,"YARRAR11432","26 - 50 Years","0","Male, Umpire/Officials",145.380213999493,-37.7294849987709,9237,18521,"COLDSTREAM","YARRA RANGES","South Gateway"
"Synthetic Pitch",null,"Cricket","Hoddles Creek Community Reserve",1,"3. Average","6 - 10 Years",3139,"YARRAR11442","26 - 50 Years","Road","Male, Umpire/Officials",145.596279999886,-37.8264759990844,9238,18542,"HODDLES CREEK","YARRA RANGES","Gembrook"
"Synthetic Pitch",null,"Cricket","Ingram Road Reserve",1,"3. Average","6 - 10 Years",3770,"YARRAR11431","26 - 50 Years","Road",null,145.382759000325,-37.7344189990578,9239,18519,"COLDSTREAM","YARRA RANGES","Ingram"
"Synthetic Pitch",null,"Cricket","Kalorama Memorial Reserve",1,"3. Average","11 + Years",3766,"YARRAR11443","26 - 50 Years","Road",null,145.379050999487,-37.8166369993212,9240,18544,"KALORAMA","YARRA RANGES","Grange"
"Synthetic Pitch",null,"Cricket","Keith Hume Fraser Reserve",2,"3. Average","Upgrade in progress",3765,"YARRAR11468","26 - 50 Years","Road","Male, Umpire/Officials",145.355378999668,-37.8033269987257,9241,18603,"MONTROSE","YARRA RANGES","Swansea"
"Synthetic Pitch",null,"Cricket","Kiloran Park",2,"3. Average","6 - 10 Years",3137,"YARRAR11451","26 - 50 Years","Street","Male, Umpire/Officials",145.310340999574,-37.7931839993269,9242,18562,"KILSYTH","YARRA RANGES","Macmillan"
"Synthetic Pitch","33","Cricket","Kimberley Reserve",2,"3. Average","6 - 10 Years",3116,"YARRAR11427","26 - 50 Years","Drive","Male",145.309789000431,-37.7520249989787,9243,18511,"CHIRNSIDE PARK","YARRA RANGES","Kimberley"
"Synthetic Pitch",null,"Cricket","Lilydale Recreation Reserve",2,"4. Good","1 - 5 Years",3140,"YARRAR11457","26 - 50 Years","Street","Male, Umpire/Officials",145.349190000141,-37.7555079987402,9244,18576,"LILYDALE","YARRA RANGES","Main"
"Synthetic Pitch",null,"Cricket","Menzies Creek Reserve",1,"2. Poor","11 + Years",3159,"YARRAR11461","26 - 50 Years","Road","Male, Umpire/Officials",145.393932000169,-37.913166999398,9245,18584,"MENZIES CREEK","YARRA RANGES","Black Hill"
"Synthetic Pitch",null,"Cricket","Millgrove Recreation Reserve??",1,"3. Average","1 - 5 Years",3799,"YARRAR11462","26 - 50 Years","Cresent","Male, Umpire/Officials",145.64961699978,-37.7536009992033,9246,18586,"MILLGROVE","YARRA RANGES","Moore"
"Synthetic Pitch",null,"Cricket","Monbulk Reserve",1,"3. Average","1 - 5 Years",3793,"YARRAR11465","26 - 50 Years","Road","Male, Umpire/Officials",145.410421000297,-37.8746259991895,9247,18596,"MONBULK","YARRA RANGES","Moores"
"Synthetic Pitch",null,"Cricket","Montrose Recreation Reserve",1,"5. Very Good","1 - 5 Years",3765,"YARRAR11467","26 - 50 Years","Road","Male, Umpire/Officials",145.344301999434,-37.8128359992941,9248,18600,"MONTROSE","YARRA RANGES","Mt Dandenong Tourist"
"Synthetic Pitch",null,"Cricket","Mooroolbark Heights Reserve",1,null,null,3138,"YARRAR11472","26 - 50 Years","Avenue","Male, Umpire/Officials",145.325745999451,-37.7927909990461,9249,18611,"MOOROOLBARK","YARRA RANGES","Longfellow"
null,"14","Fitness / Gymnasium Workouts","Goodlife Mooroolbark",1,null,null,3138,"YARRAR11473",null,"Road",null,145.311060999442,-37.7880679987138,9286,18612,"MOOROOLBARK","YARRA RANGES","Manchester"
"Synthetic Pitch",null,"Cricket","Morrison Reserve",1,"3. Average","1 - 5 Years",3796,"YARRAR11476","26 - 50 Years","Road","Male, Umpire/Officials",145.386234999633,-37.7734509994703,9250,18616,"MOUNT EVELYN","YARRA RANGES","Old Hereford"
"Synthetic Pitch",null,"Cricket","Mount Evelyn Recreation Reserve",2,"3. Average","1 - 5 Years",3796,"YARRAR11478","26 - 50 Years","Road","Male, Umpire/Officials",145.382252000205,-37.7955239992871,9251,18622,"MOUNT EVELYN","YARRA RANGES","Tramway"
"Synthetic Pitch",null,"Cricket","Narre Warren East Reserve",1,"3. Average","6 - 10 Years",3804,"YARRAR11479","26 - 50 Years","Road","Male, Umpire/Officials",145.361632999578,-37.9635269992957,9253,18625,"NARRE WARREN EAST","YARRA RANGES","Berwick"
"Synthetic Pitch",null,"Cricket","Olinda Recreation Reserve",1,"2. Poor","Upgrade in progress",3788,"YARRAR11482","26 - 50 Years","Road","Male, Umpire/Officials",145.36975600039,-37.8535529987935,9254,18629,"OLINDA","YARRA RANGES","The Georgian"
"Synthetic Pitch",null,"Cricket","Pinks Reserve",2,"3. Average","1 - 5 Years",3137,"YARRAR11449","26 - 50 Years","Road","Male, Umpire/Officials",145.31925899978,-37.8134849991661,9255,18556,"KILSYTH","YARRA RANGES","Liverpool"
"Synthetic Pitch",null,"Cricket","Powelltown Reserve",1,"3. Average","1 - 5 Years",3797,"YARRAR11483","26 - 50 Years","Road","Male, Umpire/Officials",145.747704000411,-37.864429998935,9256,18632,"POWELLTOWN","YARRA RANGES","Recreation"
"Synthetic Pitch",null,"Cricket","Queens Park",1,"3. Average","6 - 10 Years",3777,"YARRAR11439","26 - 50 Years","Road","Male, Umpire/Officials",145.52312100001,-37.6537419986681,9257,18535,"HEALESVILLE","YARRA RANGES","Don"
"Synthetic Pitch",null,"Cricket","Seville Recreation Reserve",2,"3. Average","< 1 Years",3139,"YARRAR11485","26 - 50 Years","Road","Male, Umpire/Officials",145.461873000365,-37.7801409989492,9258,18636,"SEVILLE","YARRA RANGES","Monbulk-Seville"
"Synthetic Pitch",null,"Cricket","Sheep Station Creek Reserve",1,"2. Poor","11 + Years",3139,"YARRAR11506","26 - 50 Years","Road",null,145.52454799963,-37.8044719986959,9259,18691,"YELLINGBO","YARRA RANGES","Healsville Koo Wee Rup"
"Synthetic Pitch",null,"Cricket","Silvan Recreation Reserve",1,"4. Good","1 - 5 Years",3795,"YARRAR11486","26 - 50 Years","Road","Male, Umpire/Officials",145.428320999952,-37.8307269988194,9260,18640,"SILVAN","YARRA RANGES","Silvan"
"Synthetic Pitch",null,"Cricket","Upwey Reserve",2,"2. Poor","1 - 5 Years",3158,"YARRAR11489","26 - 50 Years","Avenue","Male, Umpire/Officials",145.336971000406,-37.9030999992333,9261,18646,"UPWEY","YARRA RANGES","Chosen"
"Synthetic Pitch",null,"Cricket","Wandin East Recreation Reserve?",1,"4. Good","1 - 5 Years",3139,"YARRAR11492","0 - 5 Years","Road","Unisex",145.458532999892,-37.8153089991026,9262,18655,"WANDIN EAST","YARRA RANGES","Monbulk-Seville"
"Synthetic Pitch",null,"Cricket","Wandin North Reserve",1,"3. Average","1 - 5 Years",3139,"YARRAR11493","26 - 50 Years","Road","Male, Umpire/Officials",145.430298000084,-37.78246999868,9263,18660,"WANDIN NORTH","YARRA RANGES","Clegg"
"Synthetic Pitch",null,"Cricket","Warburton Recreation Reserve",1,"4. Good","1 - 5 Years",3799,"YARRAR11495","26 - 50 Years","Hwy","Male, Umpire/Officials",145.69511399961,-37.7515019986903,9264,18664,"WARBURTON","YARRA RANGES","Warburton"
"Synthetic Pitch",null,"Cricket","Wesburn Recreation Reserve",2,"3. Average","6 - 10 Years",3799,"YARRAR11498","26 - 50 Years","Road","Male, Umpire/Officials",145.64825899954,-37.7722819989691,9265,18670,"WESBURN","YARRA RANGES","Old Warburton"
"Synthetic Pitch",null,"Cricket","Wickams Road Reserve",1,"3. Average","1 - 5 Years",3139,"YARRAR11452","26 - 50 Years","Road","Male, Umpire/Officials",145.570748000438,-37.788207998787,9266,18565,"LAUCHING PLACE","YARRA RANGES","Wickhams"
"Synthetic Pitch",null,"Cricket","Woori Yallock Reserve",1,"4. Good","1 - 5 Years",3139,"YARRAR11499","26 - 50 Years","Lane","Male, Umpire/Officials",145.532739999597,-37.7833709991624,9267,18674,"WOORI YALLOCK","YARRA RANGES","Shevlins"
"Synthetic Pitch",null,"Cricket","Yarra Glen Recreation Reserve",2,"3. Average","Upgrade in progress",3775,"YARRAR11503","26 - 50 Years","Hwy","Male, Umpire/Officials",145.382560999568,-37.6603069989998,9268,18683,"YARRA GLEN","YARRA RANGES","Melba"
"Synthetic Pitch",null,"Cricket","Yarra Junction Recreation Reserve",1,"4. Good","1 - 5 Years",3797,"YARRAR11504","26 - 50 Years","Road","Male, Umpire/Officials",145.612006000377,-37.7804689988622,9269,18686,"YARRA JUNCTION","YARRA RANGES","Park"
null,null,"Cycling","Lysterfield Park",null,null,null,null,"YARRAR5421",null,null,null,145.301055999766,-37.9700489993961,9270,27677,null,"CASEY",null
null,null,"Equestrian","Bell Road Reserve",null,null,null,3139,"YARRAR11400",null,"Road",null,145.460181000536,-37.7798869991762,9271,26992,"SEVILLE","YARRA RANGES","Bell"
null,null,"Equestrian","Don Road Sports Complex",null,null,null,3777,"YARRAR11394",null,"Road",null,145.567063999947,-37.6965959994717,9272,26986,"HEALESVILLE","YARRA RANGES","Don"
null,null,"Equestrian","Doongala Reserve",null,null,null,3765,"YARRAR11393",null,"Road",null,145.334174000561,-37.8296139989928,9273,26985,"MONTROSE","YARRA RANGES","Sheffield South"
null,null,"Equestrian","Graeme Collings Reserve",null,null,null,3796,"YARRAR11399",null,"Road",null,145.404346999862,-37.7805239994036,9274,26991,"MOUNT EVELYN","YARRA RANGES","Bailey"
null,null,"Equestrian","Lloyd Park",null,null,null,3160,"YARRAR11392",null,"Road",null,145.348947999597,-37.9535079991106,9275,26984,"BELGRAVE SOUTH","YARRA RANGES","Belgrave"
null,null,"Equestrian","Macclesfield Reserve",null,null,null,3782,"YARRAR11396",null,"Road",null,145.491043000183,-37.889022998964,9276,26988,"MACCLESFIELD","YARRA RANGES","Kennedy"
null,null,"Equestrian","Wards Road Reserve",null,null,null,3793,"YARRAR11397",null,"Road",null,145.445400000336,-37.878430998921,9277,26989,"MONBULK","YARRA RANGES","Wards"
null,null,"Equestrian","Wesburn Recreation Reserve",null,"3. Average","1 - 5 Years",3799,"YARRAR11498","11 - 25 Years","Road",null,145.64825899954,-37.7722819989691,9278,18672,"WESBURN","YARRA RANGES","Old Warburton"
null,"28","Equestrian","Yarra Glen & Lilydale Hunt Club",null,null,null,3770,"YARRAR11395",null,"Highway",null,145.38992199992,-37.7023939988753,9279,26987,"YERING","YARRA RANGES","Melba"
null,null,"Equestrian","Yarra Glen Club Grounds",null,null,null,3775,"YARRAR11401",null,"Road",null,145.35476299978,-37.6701289991794,9280,26993,"YARRA GLEN","YARRA RANGES","Yarraview"
null,"36","Fitness / Gymnasium Workouts","Curves  Lilydale",1,null,null,3140,"YARRAR11456",null,"Drive",null,145.349077000099,-37.7483299989101,9281,18574,"LILYDALE","YARRA RANGES","Industrial Park"
null,"12/14","Fitness / Gymnasium Workouts","Curves Kilsyth",1,null,null,3137,"YARRAR11447",null,"Place",null,145.316372000003,-37.8026769994786,9282,18553,"KILSYTH","YARRA RANGES","Collins"
null,"286","Fitness / Gymnasium Workouts","Female Gym Chirnside Park",1,null,null,3116,"YARRAR11430",null,"Hwy",null,145.302566000374,-37.7672719993155,9283,18517,"CHIRNSIDE PARK","YARRA RANGES","Maroondah"
null,"282","Fitness / Gymnasium Workouts","Fit Chirnside park",1,null,null,3116,"YARRAR11429",null,"Hwy",null,145.305667000133,-37.7663569991753,9284,18516,"CHIRNSIDE PARK","YARRA RANGES","Maroondah"
null,"17","Fitness / Gymnasium Workouts","Fit Gym",1,null,null,3796,"YARRAR11477",null,"Crescent",null,145.378828999964,-37.7863069986453,9285,18620,"MOUNT EVELYN","YARRA RANGES","Wray"
null,"33","Fitness / Gymnasium Workouts","Jetts Fitness Lilydale",1,null,null,3140,"YARRAR11455",null,"Street",null,145.347594999797,-37.760039998815,9287,18573,"LILYDALE","YARRA RANGES","Hutchinson"
null,"446","Fitness / Gymnasium Workouts","Lilydale Squash & Fitness Centre",1,null,null,3140,"YARRAR11458",null,"Hwy",null,145.361078999913,-37.7562199991843,9288,18578,"LILYDALE","YARRA RANGES","Maroondah"
null,"82","Fitness / Gymnasium Workouts","Ranges Fitness",1,null,null,3158,"YARRAR11491",null,"Street",null,145.332663000549,-37.9052129992207,9290,18654,"UPWEY","YARRA RANGES","Main"
null,"255","Fitness / Gymnasium Workouts","Spartans Gym & Fitness",1,null,null,3137,"YARRAR11446",null,"Road",null,145.304416000447,-37.8235469987468,9291,18552,"KILSYTH","MAROONDAH","Colchester"
null,"2435","Fitness / Gymnasium Workouts","Yarra Centre",null,"4. Good","1 - 5 Years",3797,"YARRAR11507","11 - 25 Years","Highway","Female, Male",145.610870999805,-37.7809189987235,9292,18693,"YARRA JUNCTION","YARRA RANGES","Warburton"
"18 Hole Course - Private",null,"Golf","Chirnside Park Country Club",1,null,null,3116,"YARRAR11428",null,"Drive",null,145.32589399972,-37.7505429991675,9293,18512,"CHIRNSIDE PARK","YARRA RANGES","Kingswood"
"18 Hole Course - Private",null,"Golf","Croyden Golf Club",1,null,null,3136,"YARRAR11433",null,"Road",null,145.354348999975,-37.6923479987807,9294,18523,"CROYDEN","YARRA RANGES","Victoria"
"18 Hole Course - Public",null,"Golf","Healsville Golf Club",1,null,null,3777,"YARRAR11437",null,"Road",null,145.502063000378,-37.6499249987606,9295,18529,"HEALESVILLE","YARRA RANGES","Chum Creek"
"18 Hole Course - Public",null,"Golf","Olinda Golf Course",1,null,null,3788,"YARRAR11480",null,"Road",null,145.372309000273,-37.853586999371,9296,18626,"OLINDA","YARRA RANGES","Olinda-Monbulk"
"9 Hole Course - Public",null,"Golf","Warburton Golf Club",1,"4. Good","11 + Years",3799,"YARRAR11494","26 - 50 Years","Road","Female, Male",145.679246000438,-37.7527529992966,9297,18662,"WARBURTON","YARRA RANGES","Dammans"
null,"155","Gymnastics","Glitz Gymnastics Academy",null,null,null,3140,"YARRAR5214",null,"Road",null,145.336582000061,-37.7496769988416,9298,27296,"LILYDALE","YARRA RANGES","Beresford"
"Grass",null,"Lawn Bowls","Chirnside Park Country Club",2,null,null,3116,"YARRAR11428",null,"Drive",null,145.32589399972,-37.7505429991675,9299,18513,"CHIRNSIDE PARK","YARRA RANGES","Kingswood"
"Grass",null,"Lawn Bowls","Healsville Bowls Club",2,"2. Poor","1 - 5 Years",3777,"YARRAR11441","26 - 50 Years","Street","Female, Male",145.514445000404,-37.6529359993007,9300,18541,"HEALESVILLE","YARRA RANGES","River"
"Grass",null,"Lawn Bowls","Kiloran Park",3,"3. Average","6 - 10 Years",3137,"YARRAR11451","26 - 50 Years","Street",null,145.310340999574,-37.7931839993269,9301,18563,"KILSYTH","YARRA RANGES","Macmillan"
"Grass",null,"Lawn Bowls","Lilydale Bowls and Tennis Club",3,null,null,3140,"YARRAR11453",null,"Road",null,145.352204999445,-37.7601219994126,9302,18569,"LILYDALE","YARRA RANGES","Andersons"
"Artificial Turf",null,"Lawn Bowls","Monbulk Reserve",2,"4. Good","1 - 5 Years",3793,"YARRAR11465","26 - 50 Years","Road","Female, Male",145.410421000297,-37.8746259991895,9303,18592,"MONBULK","YARRA RANGES","Moores"
"Grass",null,"Lawn Bowls","Upwey Reserve",2,"4. Good","1 - 5 Years",3158,"YARRAR11489","26 - 50 Years","Avenue","Female, Male",145.336971000406,-37.9030999992333,9304,18651,"UPWEY","YARRA RANGES","Chosen"
"Grass",null,"Lawn Bowls","Warburton Recreation Reserve",2,"4. Good","Upgrade in progress",3799,"YARRAR11495","26 - 50 Years","Hwy","Female, Male",145.69511399961,-37.7515019986903,9305,18665,"WARBURTON","YARRA RANGES","Warburton"
"Grass",null,"Lawn Bowls","Yarra Glen Bowls Club",1,"3. Average","Upgrade in progress",3775,"YARRAR11502","26 - 50 Years","Close","Female, Male",145.372196999698,-37.6549909987591,9306,18681,"YARRA GLEN","YARRA RANGES","Helen"
"Grass",null,"Lawn Bowls","Yarra Junction Recreation Reserve",2,"3. Average","1 - 5 Years",3797,"YARRAR11504","26 - 50 Years","Road","Female, Male",145.612006000377,-37.7804689988622,9307,18687,"YARRA JUNCTION","YARRA RANGES","Park"
null,null,"Motor Sports","Lilydale Bowls and Tennis Club",1,"4. Good","Upgrade in progress",3140,"YARRAR11453","11 - 25 Years","Road",null,145.352204999445,-37.7601219994126,9308,18568,"LILYDALE","YARRA RANGES","Andersons"
"Asphalt","10/12","Netball","Belgrave South Recreation Reserve",4,"3. Average","N/A",3160,"YARRAR11426","26 - 50 Years","Road","Female",145.355946999893,-37.9315359992218,9309,18509,"BELGRAVE SOUTH","YARRA RANGES","Mt Morton"
"Asphalt",null,"Netball","McDermott Avenue Reserve",10,"2. Poor","N/A",3138,"YARRAR11474","26 - 50 Years","Avenue","Female, Male",145.317567999926,-37.7767519995281,9310,18613,"MOOROOLBARK","YARRA RANGES","McDermott"
"Asphalt",null,"Netball","Monbulk Reserve",4,"3. Average","6 - 10 Years",3793,"YARRAR11465","26 - 50 Years","Road",null,145.410421000297,-37.8746259991895,9311,18593,"MONBULK","YARRA RANGES","Moores"
"Asphalt",null,"Netball","Montrose Recreation Reserve",2,"4. Good","6 - 10 Years",3765,"YARRAR11467","6 - 10 Years","Road",null,145.344301999434,-37.8128359992941,9312,18601,"MONTROSE","YARRA RANGES","Mt Dandenong Tourist"
"Asphalt",null,"Netball","Morrison Reserve",4,"4. Good","11 + Years",3796,"YARRAR11476","6 - 10 Years","Road","Female",145.386234999633,-37.7734509994703,9313,18617,"MOUNT EVELYN","YARRA RANGES","Old Hereford"
"Asphalt",null,"Netball","Mount Evelyn Recreation Reserve",1,"4. Good","1 - 5 Years",3796,"YARRAR11478","0 - 5 Years","Road",null,145.382252000205,-37.7955239992871,9314,18623,"MOUNT EVELYN","YARRA RANGES","Tramway"
"Asphalt",null,"Netball","Olinda Recreation Reserve",1,"4. Good","Upgrade in progress",3788,"YARRAR11482","0 - 5 Years","Road",null,145.36975600039,-37.8535529987935,9315,18630,"OLINDA","YARRA RANGES","The Georgian"
"Asphalt",null,"Netball","Powelltown Reserve",1,"3. Average","1 - 5 Years",3797,"YARRAR11483","26 - 50 Years","Road","Male",145.747704000411,-37.864429998935,9316,18633,"POWELLTOWN","YARRA RANGES","Recreation"
"Asphalt",null,"Netball","Seville Recreation Reserve",1,null,null,3139,"YARRAR11485",null,"Road",null,145.461873000365,-37.7801409989492,9317,18637,"SEVILLE","YARRA RANGES","Monbulk-Seville"
"Asphalt",null,"Netball","Silvan Recreation Reserve",1,"2. Poor","6 - 10 Years",3795,"YARRAR11486","26 - 50 Years","Road",null,145.428320999952,-37.8307269988194,9318,18641,"SILVAN","YARRA RANGES","Silvan"
"Asphalt",null,"Netball","Upwey South Reserve",3,"2. Poor","1 - 5 Years",3158,"YARRAR11488","11 - 25 Years","Street",null,145.326916000491,-37.9164849990045,9319,18643,"UPWEY","YARRA RANGES","Brookside"
"Asphalt",null,"Netball","Wandin North Reserve",1,"5. Very Good","11 + Years",3139,"YARRAR11493","0 - 5 Years","Road","Female, Umpire/Officials",145.430298000084,-37.78246999868,9320,18661,"WANDIN NORTH","YARRA RANGES","Clegg"
null,null,"Netball","Warburton Recreation Reserve",null,"5. Very Good","11 + Years",3799,"YARRAR11495","0 - 5 Years","Hwy","Female",145.69511399961,-37.7515019986903,9321,18666,"WARBURTON","YARRA RANGES","Warburton"
"Asphalt",null,"Netball","Wesburn Recreation Reserve",4,"2. Poor","1 - 5 Years",3799,"YARRAR11498","26 - 50 Years","Road","Female",145.64825899954,-37.7722819989691,9322,18671,"WESBURN","YARRA RANGES","Old Warburton"
"Asphalt",null,"Netball","Woori Yallock Reserve",1,"2. Poor","< 1 Years",3139,"YARRAR11499","6 - 10 Years","Lane",null,145.532739999597,-37.7833709991624,9323,18675,"WOORI YALLOCK","YARRA RANGES","Shevlins"
"Asphalt",null,"Netball","Yarra Glen Recreation Reserve",1,"4. Good","Upgrade in progress",3775,"YARRAR11503","0 - 5 Years","Hwy",null,145.382560999568,-37.6603069989998,9324,18684,"YARRA GLEN","YARRA RANGES","Melba"
"Asphalt",null,"Netball","Yarra Junction Recreation Reserve",1,"4. Good","6 - 10 Years",3797,"YARRAR11504","0 - 5 Years","Road","Female",145.612006000377,-37.7804689988622,9325,18689,"YARRA JUNCTION","YARRA RANGES","Park"
"Synthetic",null,"Netball","Lara Reserve",2,null,null,3212,"GREATE11087",null,"Avenue",null,144.412987000476,-38.0201279990739,3314,22881,"LARA","GREATER GEELONG","Alkara"
null,"2435","Netball (Indoor)","Yarra Centre",2,"4. Good","1 - 5 Years",3797,"YARRAR11507","11 - 25 Years","Highway","Female, Male",145.610870999805,-37.7809189987235,9326,18694,"YARRA JUNCTION","YARRA RANGES","Warburton"
null,null,"Sailing","Lysterfield Sailing Club Inc",null,null,null,3156,"YARRAR11286",null,"Road",null,145.300758999772,-37.9654399988074,9327,26983,"LYSTERFIELD","YARRA RANGES","Horswood"
null,null,"Shooting Sports","Mountain District Pistol Club",null,null,null,3775,"YARRAR11193",null,"Lane",null,145.396257999659,-37.5899479991153,9328,27284,"DIXONS CREEK","YARRA RANGES","Pinnacle"
null,null,"Shooting Sports","Yarra Pistol Club",1,null,null,3156,"YARRAR11460",null,"Road",null,145.315011999787,-37.9430049991977,9329,18583,"LYSTERFIELD","YARRA RANGES","Wellington"
null,"36","Skating","Healesville Skate & BMX",1,"2. Poor","Upgrade in progress",3777,"YARRAR11440","11 - 25 Years","Road",null,145.523706999559,-37.6522159995298,9330,18539,"HEALESVILLE","YARRA RANGES","Don"
"Cement (Hard Court)",null,"Skating","Lilydale Skate Park",1,"4. Good","11 + Years",3140,"YARRAR11454","6 - 10 Years","Street",null,145.350899999835,-37.7590199987018,9331,18572,"LILYDALE","YARRA RANGES","Hardy"
"Concrete Pitch",null,"Skating","Monbulk Skate & BMX",1,"3. Average","11 + Years",3793,"YARRAR11466","6 - 10 Years","Road",null,145.409214000243,-37.8759889994365,9332,18597,"MONBULK","YARRA RANGES","Moores"
"Concrete Pitch",null,"Skating","Mt Evelyn Skate Park",1,"4. Good","< 1 Years",3796,"YARRAR11475","0 - 5 Years","Parade",null,145.379186000043,-37.784311998751,9333,18614,"MOUNT EVELYN","YARRA RANGES","Gardner"
null,"6","Skating","Upwey Skate Park",1,"3. Average","6 - 10 Years",3158,"YARRAR11490","6 - 10 Years","Street",null,145.331364000386,-37.9043309993507,9334,18653,"UPWEY","YARRA RANGES","Mahony"
null,"14","Skating","Yarra Glen Skate Park",1,"3. Average","11 + Years",3775,"YARRAR11501","6 - 10 Years","Avenue",null,145.371003000232,-37.6560289988353,9335,18680,"YARRA GLEN","YARRA RANGES","Anzac"
"Asphalt","2451","Skating","Yarra Junction Skate Park",1,"4. Good","11 + Years",3797,"YARRAR11505","6 - 10 Years","Hwy",null,145.596971999455,-37.7758409988072,9336,18690,"YARRA JUNCTION","YARRA RANGES","Warburton"
"Grass",null,"Soccer","Baynes Reserve",1,"2. Poor","11 + Years",3793,"YARRAR11463","26 - 50 Years","Road",null,145.401864999856,-37.8761849993801,9337,18589,"MONBULK","YARRA RANGES","Baynes Park"
"Grass","249/263","Soccer","Don Road?Sporting Complex",1,"2. Poor","1 - 5 Years",3777,"YARRAR11438","26 - 50 Years","Road","Male, Umpire/Officials",145.539657999613,-37.6687859987112,9338,18533,"HEALESVILLE","YARRA RANGES","Don"
"Grass",null,"Soccer","Esther Park",3,"4. Good","1 - 5 Years",3138,"YARRAR11471","26 - 50 Years","Cresent","Male, Umpire/Officials",145.307144000365,-37.7798079986959,9339,18609,"MOOROOLBARK","YARRA RANGES","esther"
"Grass",null,"Soccer","Kalorama Memorial Reserve",1,"2. Poor","11 + Years",3766,"YARRAR11443","26 - 50 Years","Road",null,145.379050999487,-37.8166369993212,9340,18546,"KALORAMA","YARRA RANGES","Grange"
"Grass",null,"Soccer","Keith Hume Fraser Reserve",2,"2. Poor","Upgrade in progress",3765,"YARRAR11468","26 - 50 Years","Road","Male, Umpire/Officials",145.355378999668,-37.8033269987257,9341,18604,"MONTROSE","YARRA RANGES","Swansea"
"Grass",null,"Soccer","Menzies Creek Reserve",2,"2. Poor","11 + Years",3159,"YARRAR11461","26 - 50 Years","Road","Male, Umpire/Officials",145.393932000169,-37.913166999398,9342,18585,"MENZIES CREEK","YARRA RANGES","Black Hill"
null,null,"Soccer","Millgrove Recreation Reserve??",2,"3. Average","1 - 5 Years",3799,"YARRAR11462","26 - 50 Years","Cresent","Male, Umpire/Officials",145.64961699978,-37.7536009992033,9343,18587,"MILLGROVE","YARRA RANGES","Moore"
"Artificial Turf",null,"Soccer","Monbulk Reserve",1,"4. Good","N/A",3793,"YARRAR11465","26 - 50 Years","Road","Male, Umpire/Officials",145.410421000297,-37.8746259991895,9344,18594,"MONBULK","YARRA RANGES","Moores"
"Grass",null,"Soccer","Morrison Reserve",3,"4. Good","Upgrade in progress",3796,"YARRAR11476","26 - 50 Years","Road","Male, Umpire/Officials",145.386234999633,-37.7734509994703,9345,18618,"MOUNT EVELYN","YARRA RANGES","Old Hereford"
"Grass",null,"Soccer","Mt Lilydale Sports Ovals",1,null,null,3140,"YARRAR11459",null,"Road",null,145.360512999884,-37.7447989990106,9346,18582,"LILYDALE","YARRA RANGES","Quarry"
"Grass",null,"Soccer","Queens Park",1,"2. Poor","N/A",3777,"YARRAR11439","26 - 50 Years","Road",null,145.52312100001,-37.6537419986681,9347,18536,"HEALESVILLE","YARRA RANGES","Don"
"Grass",null,"Soccer","Wandin East Recreation Reserve?",null,"4. Good","1 - 5 Years",3139,"YARRAR11492","0 - 5 Years","Road","Unisex",145.458532999892,-37.8153089991026,9348,18658,"WANDIN EAST","YARRA RANGES","Monbulk-Seville"
"Grass",null,"Softball","Pinks Reserve",1,"4. Good","6 - 10 Years",3137,"YARRAR11449","11 - 25 Years","Road",null,145.31925899978,-37.8134849991661,9349,18557,"KILSYTH","YARRA RANGES","Liverpool"
null,"446","Squash / Racquetball","Lilydale Squash & Fitness Centre",1,null,null,3140,"YARRAR11458",null,"Hwy",null,145.361078999913,-37.7562199991843,9350,18579,"LILYDALE","YARRA RANGES","Maroondah"
"30m Pool - Outdoor, Toddlers Pool","69","Swimming","Belgrave Swimming Pool & Tennis Club",1,"4. Good","1 - 5 Years",3160,"YARRAR11424","11 - 25 Years","Street","Female, Male",145.353984000241,-37.9140079987716,9351,18503,"BELGRAVE","YARRA RANGES","Best"
"25m Pool - Outdoor, 50m Pool - Indoor, Program Pool, Recreation / Play Water Space, Toddlers Pool",null,"Swimming","Kilsyth Centenary Swimming Centre",6,"3. Average","6 - 10 Years",3137,"YARRAR11448","26 - 50 Years","Road","Female, Male",145.310340999574,-37.7931839993269,9352,18554,"KILSYTH","YARRA RANGES","Hawthory"
null,null,"Swimming","Lilydale Recreation Reserve",1,"2. Poor","1 - 5 Years",3140,"YARRAR11457","26 - 50 Years","Street","Male, Umpire/Officials",145.349190000141,-37.7555079987402,9353,18577,"LILYDALE","YARRA RANGES","Main"
"25m Pool - Indoor, Childrens Learning Pool","26","Swimming","Monbulk Aquatic Centre",1,"2. Poor","Upgrade in progress",3793,"YARRAR11464","26 - 50 Years","Road","Female, Male",145.399804999465,-37.8768569993213,9354,18590,"MONBULK","YARRA RANGES","Baynes Park"
"25m Pool - Outdoor, Toddlers Pool","81","Swimming","Olinda Outdoor Pool",2,"1. Very Poor","6 - 10 Years",3788,"YARRAR11481","26 - 50 Years","Road","Female, Male",145.373700000437,-37.8554809994893,9355,18627,"OLINDA","YARRA RANGES","Olinda-Monbulk"
null,null,"Swimming","Queens Park",3,"3. Average","6 - 10 Years",3777,"YARRAR11439","26 - 50 Years","Road","Female, Male",145.52312100001,-37.6537419986681,9356,18537,"HEALESVILLE","YARRA RANGES","Don"
"25m Pool - Indoor, Rehabilitation Pool, Toddlers Pool","2435","Swimming","Yarra Centre",null,"5. Very Good","< 1 Years",3797,"YARRAR11507","6 - 10 Years","Highway","Female, Male",145.610870999805,-37.7809189987235,9357,18692,"YARRA JUNCTION","YARRA RANGES","Warburton"
null,null,"Cycling","Officer Scout Park",null,null,null,null,"CARDIN5434",null,null,null,145.409022999655,-38.0390839992992,1828,27689,null,"CARDINIA",null
"Wooden Flooring","95","Table Tennis","Kilsyth Sports Centre",100,"4. Good","N/A",3137,"YARRAR11450","11 - 25 Years","Road","Female, Male",145.31925899978,-37.8134849991661,9358,18560,"KILSYTH","YARRA RANGES","Liverpool"
"Hard Court","69","Tennis (Outdoor)","Belgrave Swimming Pool & Tennis Club",4,"4. Good","1 - 5 Years",3160,"YARRAR11424","11 - 25 Years","Street",null,145.353984000241,-37.9140079987716,9359,18504,"BELGRAVE","YARRA RANGES","Best"
"Artificial Turf",null,"Tennis (Outdoor)","Chirnside Park Country Club",2,null,null,3116,"YARRAR11428",null,"Drive",null,145.32589399972,-37.7505429991675,9360,18515,"CHIRNSIDE PARK","YARRA RANGES","Kingswood"
"Hard Court",null,"Tennis (Outdoor)","Chirnside Park Country Club",4,null,null,3116,"YARRAR11428",null,"Drive",null,145.32589399972,-37.7505429991675,9361,18514,"CHIRNSIDE PARK","YARRA RANGES","Kingswood"
"Clay","249/263","Tennis (Outdoor)","Don Road?Sporting Complex",4,"2. Poor","N/A",3777,"YARRAR11438","26 - 50 Years","Road",null,145.539657999613,-37.6687859987112,9362,18532,"HEALESVILLE","YARRA RANGES","Don"
"Clay",null,"Tennis (Outdoor)","Ferny Creek Reserve",7,null,null,3786,"YARRAR11434",null,"Road",null,145.34579599954,-37.8753459990078,9363,18525,"FERNY CREEK","YARRA RANGES","Clarkmont"
"Asphalt",null,"Tennis (Outdoor)","Gruyere Recreation Reserve",2,"2. Poor","6 - 10 Years",3770,"YARRAR11436","26 - 50 Years","Road",null,145.445083999599,-37.7308449986947,9364,18528,"GRUYERE","YARRA RANGES","Killara"
"Clay",null,"Tennis (Outdoor)","Halley Supple Reserve",4,"3. Average","1 - 5 Years",3770,"YARRAR11432","26 - 50 Years","0","Female",145.380213999493,-37.7294849987709,9365,18522,"COLDSTREAM","YARRA RANGES","South Gateway"
"Artificial Turf",null,"Tennis (Outdoor)","Hoddles Creek Community Reserve",2,"2. Poor","N/A",3139,"YARRAR11442","26 - 50 Years","Road","Female",145.596279999886,-37.8264759990844,9366,18543,"HODDLES CREEK","YARRA RANGES","Gembrook"
"Clay",null,"Tennis (Outdoor)","Kalorama Memorial Reserve",3,"3. Average","11 + Years",3766,"YARRAR11443","26 - 50 Years","Road",null,145.379050999487,-37.8166369993212,9367,18547,"KALORAMA","YARRA RANGES","Grange"
"Hard Court",null,"Tennis (Outdoor)","Keith Hume Fraser Reserve",5,"3. Average","N/A",3765,"YARRAR11468","26 - 50 Years","Road",null,145.355378999668,-37.8033269987257,9368,18605,"MONTROSE","YARRA RANGES","Swansea"
"Hard Court",null,"Tennis (Outdoor)","Kiloran Park",8,"3. Average","6 - 10 Years",3137,"YARRAR11451","26 - 50 Years","Street",null,145.310340999574,-37.7931839993269,9369,18564,"KILSYTH","YARRA RANGES","Macmillan"
"Hard Court",null,"Tennis (Outdoor)","Kilsyth Recreation Reserve",2,"3. Average","11 + Years",3137,"YARRAR11445","26 - 50 Years","Road",null,145.309517000553,-37.8038499986545,9370,18551,"KILSYTH","YARRA RANGES","Colchester"
"Artificial Turf, Clay",null,"Tennis (Outdoor)","Kilsyth Recreation Reserve",5,"3. Average","11 + Years",3137,"YARRAR11445","26 - 50 Years","Road",null,145.309517000553,-37.8038499986545,9371,18550,"KILSYTH","YARRA RANGES","Colchester"
"Artificial Turf",null,"Tennis (Outdoor)","Lilydale Bowls and Tennis Club",4,"4. Good","11 + Years",3140,"YARRAR11453","11 - 25 Years","Road",null,145.352204999445,-37.7601219994126,9372,18571,"LILYDALE","YARRA RANGES","Andersons"
"Asphalt",null,"Tennis (Outdoor)","Lilydale Bowls and Tennis Club",4,"4. Good","11 + Years",3140,"YARRAR11453","11 - 25 Years","Road",null,145.352204999445,-37.7601219994126,9373,18570,"LILYDALE","YARRA RANGES","Andersons"
"Clay, Hard Court",null,"Tennis (Outdoor)","Monbulk Reserve",4,"4. Good","6 - 10 Years",3793,"YARRAR11465","26 - 50 Years","Road",null,145.410421000297,-37.8746259991895,9375,18595,"MONBULK","YARRA RANGES","Moores"
"Hard Court",null,"Tennis (Outdoor)","Montrose Recreation Reserve",6,"4. Good","6 - 10 Years",3765,"YARRAR11467","26 - 50 Years","Road",null,145.344301999434,-37.8128359992941,9376,18602,"MONTROSE","YARRA RANGES","Mt Dandenong Tourist"
null,null,"Tennis (Outdoor)","Morrison Reserve",null,"4. Good","11 + Years",3796,"YARRAR11476","6 - 10 Years","Road","Female",145.386234999633,-37.7734509994703,9377,18619,"MOUNT EVELYN","YARRA RANGES","Old Hereford"
"Artificial Turf",null,"Tennis (Outdoor)","Queens Park",6,"5. Very Good","< 1 Years",3777,"YARRAR11439","26 - 50 Years","Road","Female",145.52312100001,-37.6537419986681,9378,18538,"HEALESVILLE","YARRA RANGES","Don"
"Artificial Turf",null,"Tennis (Outdoor)","Seville Recreation Reserve",6,"3. Average","1 - 5 Years",3139,"YARRAR11485","11 - 25 Years","Road","Female",145.461873000365,-37.7801409989492,9379,18638,"SEVILLE","YARRA RANGES","Monbulk-Seville"
"Hard Court",null,"Tennis (Outdoor)","Upwey Reserve",5,"3. Average","1 - 5 Years",3158,"YARRAR11489","26 - 50 Years","Avenue",null,145.336971000406,-37.9030999992333,9380,18652,"UPWEY","YARRA RANGES","Chosen"
"Hard Court",null,"Tennis (Outdoor)","Upwey South Reserve",6,"3. Average","6 - 10 Years",3158,"YARRAR11488","26 - 50 Years","Street",null,145.326916000491,-37.9164849990045,9381,18644,"UPWEY","YARRA RANGES","Brookside"
"Asphalt",null,"Tennis (Outdoor)","Wandin East Recreation Reserve?",2,"1. Very Poor","N/A",3139,"YARRAR11492","26 - 50 Years","Road",null,145.458532999892,-37.8153089991026,9382,18656,"WANDIN EAST","YARRA RANGES","Monbulk-Seville"
"Artificial Turf",null,"Tennis (Outdoor)","Warburton Tennis Courts",4,"1. Very Poor","N/A",3799,"YARRAR11497","26 - 50 Years","Road",null,145.704015999577,-37.7533839992676,9383,18668,"WARBURTON","YARRA RANGES","Woods point"
"Asphalt",null,"Tennis (Outdoor)","Wickams Road Reserve",2,"1. Very Poor","N/A",3139,"YARRAR11452","26 - 50 Years","Road",null,145.570748000438,-37.788207998787,9384,18566,"LAUCHING PLACE","YARRA RANGES","Wickhams"
"Artificial Turf",null,"Tennis (Outdoor)","Woori Yallock Reserve",4,"2. Poor","1 - 5 Years",3139,"YARRAR11499","26 - 50 Years","Lane","Female",145.532739999597,-37.7833709991624,9385,18676,"WOORI YALLOCK","YARRA RANGES","Shevlins"
"Hard Court",null,"Tennis (Outdoor)","Yarra Glen Tennis Club",3,"2. Poor","1 - 5 Years",3775,"YARRAR11500","26 - 50 Years","Avenue","Female",145.371195999985,-37.6559039993632,9386,18679,"YARRA GLEN","YARRA RANGES","Anzac"
"Artificial Turf",null,"Tennis (Outdoor)","Yarra Glen Tennis Club",1,"2. Poor","1 - 5 Years",3775,"YARRAR11500","26 - 50 Years","Avenue","Female",145.371195999985,-37.6559039993632,9387,18677,"YARRA GLEN","YARRA RANGES","Anzac"
"Asphalt",null,"Tennis (Outdoor)","Yarra Glen Tennis Club",2,"2. Poor","1 - 5 Years",3775,"YARRAR11500","26 - 50 Years","Avenue","Female",145.371195999985,-37.6559039993632,9388,18678,"YARRA GLEN","YARRA RANGES","Anzac"
"Artificial Turf",null,"Tennis (Outdoor)","Yarra Junction Recreation Reserve",4,"4. Good","6 - 10 Years",3797,"YARRAR11504","26 - 50 Years","Road","Female",145.612006000377,-37.7804689988622,9389,18688,"YARRA JUNCTION","YARRA RANGES","Park"
"Grass",null,"Australian Rules Football","Anzac Park",1,"3. Average","1 - 5 Years",3393,"YARRIA12734","11 - 25 Years","Street","Female, Male, Umpire/Officials",142.396136999745,-36.2576569995023,9390,21165,"WARRACKNABEAL","YARRIAMBIACK","Scott"
"Grass",null,"Australian Rules Football","Beulah Recreation Reserve",1,"4. Good","11 + Years",3395,"YARRIA12705","11 - 25 Years","Street","Female, Male, Umpire/Officials",142.417112999494,-35.9430179989708,9391,21100,"BEULAH","YARRIAMBIACK","Phillips"
"Grass",null,"Australian Rules Football","Brim Recreation Reserve",1,"4. Good","1 - 5 Years",3391,"YARRIA12707","11 - 25 Years","Street","Female, Male, Umpire/Officials",142.415883999699,-36.073804998701,9392,21106,"BRIM","YARRIAMBIACK","Simson"
"Grass",null,"Australian Rules Football","Hopetoun Recreation Reserve",1,"4. Good","1 - 5 Years",3396,"YARRIA12714","11 - 25 Years","Street","Female, Male, Umpire/Officials",142.365146999811,-35.7323909987139,9393,21117,"HOPETOUN","YARRIAMBIACK","Strachan"
"Grass",null,"Australian Rules Football","Lubeck Recreation Reserve",1,"1. Very Poor","11 + Years",3381,"YARRIA12715","26 - 50 Years","Road",null,142.551354999593,-36.7483049992366,9394,21121,"LUBECK","YARRIAMBIACK","Horsham-Lubeck"
"Grass",null,"Australian Rules Football","Minyip Recreation Reserve",1,"3. Average","6 - 10 Years",3392,"YARRIA12717","11 - 25 Years","Street","Female, Male, Umpire/Officials",142.593035999949,-36.4602039991693,9395,21128,"MINYIP","YARRIAMBIACK","South"
"Grass",null,"Australian Rules Football","Murtoa Recreation Reserve",1,"4. Good","< 1 Years",3390,"YARRIA12723","0 - 5 Years","Street","Female, Male, Umpire/Officials",142.465640999657,-36.6237429991812,9396,21136,"MURTOA","YARRIAMBIACK","Lake"
"Grass",null,"Australian Rules Football","Patchewollock Recreation Reserve",1,"1. Very Poor","11 + Years",3491,"YARRIA12725","51 Years +","Road",null,142.19290500047,-35.3813339993389,9397,21139,"PATCHEWOLLOCK","YARRIAMBIACK","Patchewollock-Sea Lake"
"Grass",null,"Australian Rules Football","Rupanyup Recreation Reserve",1,"4. Good","1 - 5 Years",3388,"YARRIA12727","0 - 5 Years","Street","Female, Male, Umpire/Officials",142.636647999816,-36.6276649990027,9398,21144,"RUPANYUP","YARRIAMBIACK","Gibson"
"Grass",null,"Australian Rules Football","Tempy Recreation Reserve",1,"2. Poor","11 + Years",3489,"YARRIA12731","11 - 25 Years","Road",null,142.426353999848,-35.3469169995231,9399,21152,"TEMPY","YARRIAMBIACK","Patchewollock"
"Grass",null,"Australian Rules Football","Woomelang Recreation Reserve",1,"3. Average","11 + Years",3485,"YARRIA12739","11 - 25 Years","Street","Female, Male, Umpire/Officials",142.66817500016,-35.6836949989151,9400,21174,"WOOMELANG","YARRIAMBIACK","Roberts"
"Grass",null,"Australian Rules Football","Yaapeet Recreation Reserve",1,"2. Poor","11 + Years",3424,"YARRIA12742","11 - 25 Years","Road","Female, Male",142.051277000255,-35.7674529987234,9401,21178,"YAAPEET","YARRIAMBIACK","Yaapeet-Kenmare"
null,null,"Badminton","Warracknabeal Leisure Complex",3,"3. Average","6 - 10 Years",3393,"YARRIA12733","11 - 25 Years","Street","Female, Male",142.392378999608,-36.2525129992118,9402,21155,"WARRACKNABEAL","YARRIAMBIACK","Anderson"
"Synthetic",null,"Basketball","Hopetoun Tennis Club",2,"3. Average","11 + Years",3396,"YARRIA12713","11 - 25 Years","Street",null,142.366786000001,-35.7258619994965,9403,21115,"HOPETOUN","YARRIAMBIACK","Austin"
null,null,"Basketball","Warracknabeal Leisure Complex",2,"3. Average","6 - 10 Years",3393,"YARRIA12733","11 - 25 Years","Street","Female, Male",142.392378999608,-36.2525129992118,9404,21156,"WARRACKNABEAL","YARRIAMBIACK","Anderson"
"Turf Pitch",null,"Cricket","Anzac Park",1,"3. Average","1 - 5 Years",3393,"YARRIA12734","11 - 25 Years","Street","Female, Male, Umpire/Officials",142.396136999745,-36.2576569995023,9405,21166,"WARRACKNABEAL","YARRIAMBIACK","Scott"
"Turf Pitch",null,"Cricket","Beulah Recreation Reserve",1,"4. Good","11 + Years",3395,"YARRIA12705","11 - 25 Years","Street","Female, Male, Umpire/Officials",142.417112999494,-35.9430179989708,9406,21101,"BEULAH","YARRIAMBIACK","Phillips"
"Turf Pitch",null,"Cricket","Brim Recreation Reserve",1,"4. Good","1 - 5 Years",3391,"YARRIA12707","11 - 25 Years","Street","Female, Male, Umpire/Officials",142.415883999699,-36.073804998701,9407,21107,"BRIM","YARRIAMBIACK","Simson"
"Turf Pitch",null,"Cricket","Hopetoun Recreation Reserve",1,"4. Good","1 - 5 Years",3396,"YARRIA12714","11 - 25 Years","Street","Female, Male, Umpire/Officials",142.365146999811,-35.7323909987139,9408,21118,"HOPETOUN","YARRIAMBIACK","Strachan"
"Synthetic Pitch",null,"Cricket","Lubeck Recreation Reserve",1,"1. Very Poor","11 + Years",3381,"YARRIA12715","26 - 50 Years","Road",null,142.551354999593,-36.7483049992366,9409,21120,"LUBECK","YARRIAMBIACK","Horsham-Lubeck"
"Synthetic Pitch",null,"Cricket","Minyip Recreation Reserve",1,"3. Average","6 - 10 Years",3392,"YARRIA12717","11 - 25 Years","Street","Female, Male, Umpire/Officials",142.593035999949,-36.4602039991693,9410,21124,"MINYIP","YARRIAMBIACK","South"
"Synthetic Pitch",null,"Cricket","Murtoa Recreation Reserve",1,"4. Good","< 1 Years",3390,"YARRIA12723","0 - 5 Years","Street","Female, Male, Umpire/Officials",142.465640999657,-36.6237429991812,9411,21134,"MURTOA","YARRIAMBIACK","Lake"
"Synthetic Pitch",null,"Cricket","Rupanyup Recreation Reserve",1,"4. Good","1 - 5 Years",3388,"YARRIA12727","0 - 5 Years","Street","Female, Male, Umpire/Officials",142.636647999816,-36.6276649990027,9412,21141,"RUPANYUP","YARRIAMBIACK","Gibson"
"Synthetic Pitch",null,"Cricket","Tempy Recreation Reserve",1,"2. Poor","11 + Years",3489,"YARRIA12731","11 - 25 Years","Road",null,142.426353999848,-35.3469169995231,9413,21149,"TEMPY","YARRIAMBIACK","Patchewollock"
null,null,"Cricket (Indoor)","Warracknabeal Leisure Complex",2,"3. Average","6 - 10 Years",3393,"YARRIA12733","11 - 25 Years","Street","Female, Male",142.392378999608,-36.2525129992118,9414,21159,"WARRACKNABEAL","YARRIAMBIACK","Anderson"
"Artificial Turf",null,"Croquet","Beulah Bowls Club",1,"3. Average","11 + Years",3395,"YARRIA12706","11 - 25 Years","Street","Female, Male",142.417869000327,-35.9436649987546,9415,21104,"BEULAH","YARRIAMBIACK","Phillips"
"Grass","1","Croquet","Warracknabeal Bowling Club",1,"3. Average","1 - 5 Years",3393,"YARRIA12732","11 - 25 Years","Avenue","Female, Male",142.389689000319,-36.2505939990263,9416,21154,"WARRACKNABEAL","YARRIAMBIACK","The"
null,null,"Fitness / Gymnasium Workouts","Warracknabeal Leisure Complex",1,"3. Average","6 - 10 Years",3393,"YARRIA12733","11 - 25 Years","Street","Female, Male",142.392378999608,-36.2525129992118,9417,21157,"WARRACKNABEAL","YARRIAMBIACK","Anderson"
"9 Hole Course - Public",null,"Golf","Brim Country Club",1,"4. Good","1 - 5 Years",3391,"YARRIA12708","11 - 25 Years","Street","Female, Male",142.419505000545,-36.0736919993555,9418,21110,"BRIM","YARRIAMBIACK","Simson"
"18 Hole Course - Public",null,"Golf","Hopetoun Golf Club",1,"3. Average","1 - 5 Years",3396,"YARRIA12710","11 - 25 Years","Road","Female, Male",142.363382999579,-35.7385489987003,9419,21112,"HOPETOUN","YARRIAMBIACK","Rainbow"
"18 Hole Course - Public",null,"Golf","Minyip Golf Club",1,"3. Average","11 + Years",3392,"YARRIA12719","26 - 50 Years","Road",null,142.594082000394,-36.4744019992449,9420,21130,"MINYIP","YARRIAMBIACK","Golf"
"18 Hole Course - Public",null,"Golf","Murtoa Golf Club",1,"3. Average","1 - 5 Years",3390,"YARRIA12724","26 - 50 Years","Road","Female, Male",142.487326000281,-36.6825939990317,9421,21137,"MURTOA","YARRIAMBIACK","Murtoa-Glenorchy"
"18 Hole Course - Public",null,"Golf","Rupanyup Golf Club",1,"3. Average","11 + Years",3388,"YARRIA12728","11 - 25 Years","Avenue","Female, Male",142.637162999892,-36.616543998862,9422,21145,"RUPANYUP","YARRIAMBIACK","Frayne"
"Rebound Ace",null,"Tennis (Outdoor)","Koondrook Tennis",3,null,null,3580,"GANNAW8850",null,"Street",null,144.129310999482,-35.6424499992862,3057,23764,"KOONDROOK","GANNAWARRA","Forest"
"18 Hole Course - Public",null,"Golf","Sheep Hills Golf Club",1,"2. Poor","11 + Years",3393,"YARRIA12737","11 - 25 Years","Road","Female, Male",142.522101999853,-36.3606369993144,9423,21171,"WARRACKNABEAL","YARRIAMBIACK","Minyip"
"9 Hole Course - Public",null,"Golf","Speed Golf Course",1,"1. Very Poor","11 + Years",3488,"YARRIA12729","11 - 25 Years","Road","Female, Male",142.439736999659,-35.3996129991949,9424,21147,"SPEED","YARRIAMBIACK","Nyarrin"
"18 Hole Course - Public","102","Golf","Warracknabeal Golf & Bowls Club",1,"3. Average","1 - 5 Years",3393,"YARRIA12736","11 - 25 Years","Road","Female, Male",142.40999399989,-36.2321439988796,9425,21170,"WARRACKNABEAL","YARRIAMBIACK","Golf Links"
"9 Hole Course - Public",null,"Golf","Woomelang Golf Club",1,"2. Poor","11 + Years",3485,"YARRIA12741","11 - 25 Years","Highway","Female, Male",142.648076999458,-35.6735949994417,9426,21177,"WOOMELANG","YARRIAMBIACK","Sunraysia"
"Grass",null,"Hockey","Anzac Park",1,"3. Average","1 - 5 Years",3393,"YARRIA12734","11 - 25 Years","Street","Female, Male, Umpire/Officials",142.396136999745,-36.2576569995023,9427,21167,"WARRACKNABEAL","YARRIAMBIACK","Scott"
